#gps_message RSSI(dBm)
$GPGGA,010841.00,3856.0627,N,09439.3760,W,2,11,0.8,278.9,M,-28.8,M,,*5C -57.3
$GPGGA,010842.00,3856.0627,N,09439.3760,W,2,11,0.8,278.8,M,-28.8,M,,*5E -57.3
$GPGGA,010843.00,3856.0627,N,09439.3760,W,2,11,0.8,278.7,M,-28.8,M,,*50 -57.4
$GPGGA,010844.00,3856.0627,N,09439.3760,W,2,10,1.0,278.5,M,-28.8,M,,*5D -57.4
$GPGGA,010846.00,3856.0630,N,09439.3760,W,2,10,1.0,278.4,M,-28.8,M,,*58 -57.4
$GPGGA,010847.00,3856.0630,N,09439.3760,W,2,11,1.0,278.3,M,-28.8,M,,*5F -57.4
$GPGGA,010848.00,3856.0630,N,09439.3760,W,2,10,1.0,278.3,M,-28.8,M,,*51 -57.7
$GPGGA,010849.00,3856.0630,N,09439.3760,W,2,11,1.0,278.2,M,-28.8,M,,*50 -57.4
$GPGGA,010851.00,3856.0627,N,09439.3760,W,2,11,0.8,278.0,M,-28.8,M,,*54 -57.0
$GPGGA,010852.00,3856.0625,N,09439.3760,W,2,10,1.0,277.9,M,-28.8,M,,*5B -62.1
$GPGGA,010853.00,3856.0620,N,09439.3770,W,2,10,1.0,277.7,M,-28.8,M,,*50 -59.9
$GPGGA,010854.00,3856.0615,N,09439.3770,W,2,10,1.0,277.5,M,-28.8,M,,*53 -57.7
$GPGGA,010856.00,3856.0605,N,09439.3779,W,2,10,1.0,277.2,M,-28.8,M,,*5E -60.1
$GPGGA,010857.00,3856.0603,N,09439.3779,W,2,10,1.0,277.0,M,-28.8,M,,*5B -63.6
$GPGGA,010858.00,3856.0603,N,09439.3779,W,2,10,1.0,276.8,M,-28.8,M,,*5D -63.8
$GPGGA,010859.00,3856.0603,N,09439.3779,W,2,10,1.0,276.7,M,-28.8,M,,*53 -63.8
$GPGGA,010901.00,3856.0601,N,09439.3779,W,2,10,1.0,276.6,M,-28.8,M,,*5C -63.4
$GPGGA,010902.00,3856.0596,N,09439.3779,W,2,10,1.0,276.5,M,-28.8,M,,*51 -62.4
$GPGGA,010903.00,3856.0588,N,09439.3789,W,2,10,1.0,276.5,M,-28.8,M,,*50 -56.1
$GPGGA,010904.00,3856.0581,N,09439.3789,W,2,11,0.8,276.5,M,-28.8,M,,*56 -62.9
$GPGGA,010906.00,3856.0571,N,09439.3779,W,2,10,0.9,276.3,M,-28.8,M,,*52 -59.1
$GPGGA,010907.00,3856.0571,N,09439.3779,W,2,10,0.8,276.2,M,-28.8,M,,*53 -59.0
$GPGGA,010908.00,3856.0571,N,09439.3779,W,2,10,0.8,276.1,M,-28.8,M,,*5F -58.7
$GPGGA,010909.00,3856.0576,N,09439.3789,W,2,11,0.8,276.0,M,-28.8,M,,*56 -59.5
$GPGGA,010911.00,3856.0579,N,09439.3818,W,2,10,1.0,275.9,M,-28.8,M,,*55 -60.7
$GPGGA,010912.00,3856.0576,N,09439.3828,W,2,11,0.8,276.0,M,-28.8,M,,*58 -60.5
$GPGGA,010913.00,3856.0569,N,09439.3857,W,2,10,1.3,276.1,M,-28.8,M,,*55 -61.6
$GPGGA,010914.00,3856.0559,N,09439.3877,W,2,10,1.3,276.2,M,-28.8,M,,*50 -60.7
$GPGGA,010916.00,3856.0547,N,09439.3936,W,2,10,1.0,276.0,M,-28.8,M,,*58 -60.4
$GPGGA,010917.00,3856.0542,N,09439.3975,W,2,10,1.0,275.9,M,-28.8,M,,*51 -55.8
$GPGGA,010918.00,3856.0537,N,09439.4014,W,2,10,1.0,275.9,M,-28.8,M,,*55 -60.4
$GPGGA,010919.00,3856.0530,N,09439.4053,W,2,10,1.0,275.8,M,-28.8,M,,*51 -62.2
$GPGGA,010921.00,3856.0510,N,09439.4121,W,2,11,1.0,276.0,M,-28.8,M,,*56 -64.6
$GPGGA,010922.00,3856.0498,N,09439.4160,W,2,11,0.8,276.3,M,-28.8,M,,*5B -61.2
$GPGGA,010923.00,3856.0483,N,09439.4189,W,2,11,0.8,276.4,M,-28.8,M,,*50 -60.5
$GPGGA,010924.00,3856.0466,N,09439.4219,W,2,10,0.8,276.5,M,-28.8,M,,*56 -61.2
$GPGGA,010926.00,3856.0427,N,09439.4277,W,2,10,0.8,276.6,M,-28.8,M,,*5A -61.7
$GPGGA,010927.00,3856.0408,N,09439.4307,W,2,10,0.8,276.6,M,-28.8,M,,*50 -62.4
$GPGGA,010928.00,3856.0388,N,09439.4336,W,2,10,0.8,276.6,M,-28.8,M,,*52 -62.4
$GPGGA,010929.00,3856.0374,N,09439.4355,W,2,10,1.1,276.7,M,-28.8,M,,*5C -59.3
$GPGGA,010931.00,3856.0337,N,09439.4395,W,2,10,0.8,277.1,M,-28.8,M,,*51 -62.0
$GPGGA,010932.00,3856.0315,N,09439.4404,W,2,10,0.8,277.4,M,-28.8,M,,*58 -62.0
$GPGGA,010933.00,3856.0288,N,09439.4424,W,2,11,0.8,278.0,M,-28.8,M,,*54 -59.1
$GPGGA,010934.00,3856.0256,N,09439.4434,W,2,10,1.1,278.7,M,-28.8,M,,*5F -57.2
$GPGGA,010936.00,3856.0188,N,09439.4473,W,2,10,0.8,279.0,M,-28.8,M,,*50 -56.8
$GPGGA,010937.00,3856.0154,N,09439.4492,W,2,10,0.8,278.8,M,-28.8,M,,*56 -58.4
$GPGGA,010938.00,3856.0117,N,09439.4502,W,2,10,0.8,278.8,M,-28.8,M,,*56 -57.3
$GPGGA,010939.00,3856.0081,N,09439.4521,W,2,09,1.0,278.4,M,-28.8,M,,*55 -59.4
$GPGGA,010941.00,3856.0000,N,09439.4531,W,2,09,1.0,278.4,M,-28.8,M,,*52 -60.3
$GPGGA,010942.00,3855.9961,N,09439.4531,W,2,10,0.8,278.2,M,-28.8,M,,*52 -57.4
$GPGGA,010943.00,3855.9919,N,09439.4521,W,2,10,0.8,277.9,M,-28.8,M,,*59 -59.2
$GPGGA,010944.00,3855.9880,N,09439.4521,W,2,10,0.8,278.1,M,-28.8,M,,*58 -58.0
$GPGGA,010946.00,3855.9807,N,09439.4531,W,2,10,1.0,278.6,M,-28.8,M,,*5A -57.6
$GPGGA,010947.00,3855.9773,N,09439.4531,W,2,10,1.0,278.7,M,-28.8,M,,*56 -57.6
$GPGGA,010948.00,3855.9746,N,09439.4551,W,2,11,0.8,278.8,M,-28.8,M,,*5E -59.6
$GPGGA,010949.00,3855.9724,N,09439.4570,W,2,10,1.0,279.0,M,-28.8,M,,*59 -60.7
$GPGGA,010951.00,3855.9709,N,09439.4629,W,2,10,1.0,280.1,M,-28.8,M,,*57 -58.6
$GPGGA,010952.00,3855.9707,N,09439.4668,W,2,11,1.0,280.2,M,-28.8,M,,*5D -61.9
$GPGGA,010953.00,3855.9705,N,09439.4707,W,2,11,0.8,280.4,M,-28.8,M,,*59 -60.3
$GPGGA,010954.00,3855.9700,N,09439.4756,W,2,11,1.0,280.3,M,-28.8,M,,*51 -56.5
$GPGGA,010956.00,3855.9695,N,09439.4824,W,2,10,1.0,279.9,M,-28.8,M,,*59 -57.6
$GPGGA,010957.00,3855.9695,N,09439.4844,W,2,09,1.0,280.0,M,-28.8,M,,*59 -59.0
$GPGGA,010958.00,3855.9695,N,09439.4863,W,2,09,1.0,280.0,M,-28.8,M,,*53 -62.8
$GPGGA,010959.00,3855.9695,N,09439.4873,W,2,10,1.0,280.0,M,-28.8,M,,*5B -66.8
$GPGGA,011001.00,3855.9695,N,09439.4873,W,2,10,1.0,280.2,M,-28.8,M,,*5C -67.4
$GPGGA,011002.00,3855.9692,N,09439.4873,W,2,10,1.0,280.2,M,-28.8,M,,*58 -67.2
$GPGGA,011003.00,3855.9692,N,09439.4873,W,2,10,1.0,280.2,M,-28.8,M,,*59 -67.4
$GPGGA,011004.00,3855.9692,N,09439.4873,W,2,10,1.0,280.1,M,-28.8,M,,*5D -67.5
$GPGGA,011006.00,3855.9692,N,09439.4873,W,2,10,1.0,280.2,M,-28.8,M,,*5C -69.3
$GPGGA,011007.00,3855.9692,N,09439.4873,W,2,09,1.0,280.2,M,-28.8,M,,*55 -63.0
$GPGGA,011008.00,3855.9695,N,09439.4883,W,2,09,1.0,280.2,M,-28.8,M,,*52 -57.7
$GPGGA,011009.00,3855.9702,N,09439.4902,W,2,10,1.0,280.3,M,-28.8,M,,*5D -58.4
$GPGGA,011011.00,3855.9736,N,09439.4922,W,2,11,0.9,280.1,M,-28.8,M,,*5A -57.5
$GPGGA,011012.00,3855.9768,N,09439.4932,W,2,10,0.9,279.7,M,-28.8,M,,*52 -56.7
$GPGGA,011013.00,3855.9807,N,09439.4932,W,2,10,0.9,279.5,M,-28.8,M,,*57 -59.9
$GPGGA,011014.00,3855.9851,N,09439.4932,W,2,11,0.9,279.3,M,-28.8,M,,*54 -57.1
$GPGGA,011016.00,3855.9954,N,09439.4932,W,2,11,0.8,278.8,M,-28.8,M,,*59 -59.6
$GPGGA,011017.00,3856.0010,N,09439.4932,W,2,11,0.8,278.6,M,-28.8,M,,*55 -57.9
$GPGGA,011018.00,3856.0068,N,09439.4932,W,2,11,0.8,278.4,M,-28.8,M,,*57 -57.2
$GPGGA,011019.00,3856.0127,N,09439.4932,W,2,11,0.8,277.8,M,-28.8,M,,*5F -58.0
$GPGGA,011021.00,3856.0249,N,09439.4932,W,2,12,0.8,276.0,M,-28.8,M,,*55 -60.2
$GPGGA,011022.00,3856.0310,N,09439.4932,W,2,12,0.8,275.6,M,-28.8,M,,*5E -58.0
$GPGGA,011023.00,3856.0369,N,09439.4932,W,2,12,0.8,275.6,M,-28.8,M,,*51 -60.1
$GPGGA,011024.00,3856.0430,N,09439.4932,W,2,11,0.8,275.0,M,-28.8,M,,*58 -59.9
$GPGGA,011026.00,3856.0549,N,09439.4932,W,2,10,0.9,273.9,M,-28.8,M,,*5A -56.6
$GPGGA,011027.00,3856.0608,N,09439.4932,W,2,11,0.8,273.4,M,-28.8,M,,*50 -58.8
$GPGGA,011028.00,3856.0669,N,09439.4932,W,2,11,0.8,273.1,M,-28.8,M,,*5D -58.4
$GPGGA,011029.00,3856.0730,N,09439.4932,W,2,11,0.8,272.8,M,-28.8,M,,*59 -56.8
$GPGGA,011031.00,3856.0859,N,09439.4932,W,2,11,0.8,272.3,M,-28.8,M,,*5B -57.4
$GPGGA,011032.00,3856.0925,N,09439.4932,W,2,11,0.8,272.0,M,-28.8,M,,*51 -57.7
$GPGGA,011033.00,3856.0991,N,09439.4932,W,2,11,0.8,271.8,M,-28.8,M,,*54 -57.8
$GPGGA,011034.00,3856.1057,N,09439.4932,W,2,10,0.8,271.8,M,-28.8,M,,*50 -56.6
$GPGGA,011036.00,3856.1191,N,09439.4932,W,2,12,0.9,271.7,M,-28.8,M,,*55 -57.0
$GPGGA,011037.00,3856.1260,N,09439.4932,W,2,12,0.8,271.5,M,-28.8,M,,*5A -59.8
$GPGGA,011038.00,3856.1331,N,09439.4932,W,2,12,0.8,271.2,M,-28.8,M,,*57 -58.0
$GPGGA,011039.00,3856.1404,N,09439.4932,W,2,11,0.8,270.8,M,-28.8,M,,*5F -57.0
$GPGGA,011041.00,3856.1550,N,09439.4932,W,2,11,0.8,269.8,M,-28.8,M,,*58 -59.6
$GPGGA,011042.00,3856.1628,N,09439.4932,W,2,11,0.8,269.3,M,-28.8,M,,*5C -56.5
$GPGGA,011043.00,3856.1707,N,09439.4932,W,2,11,0.8,268.6,M,-28.8,M,,*55 -57.1
$GPGGA,011044.00,3856.1785,N,09439.4932,W,2,11,0.8,267.8,M,-28.8,M,,*59 -57.8
$GPGGA,011046.00,3856.1943,N,09439.4932,W,2,12,0.9,266.5,M,-28.8,M,,*51 -57.9
$GPGGA,011047.00,3856.2026,N,09439.4932,W,2,11,0.8,265.8,M,-28.8,M,,*55 -58.1
$GPGGA,011048.00,3856.2109,N,09439.4932,W,2,12,0.8,265.2,M,-28.8,M,,*5F -58.3
$GPGGA,011049.00,3856.2192,N,09439.4932,W,2,11,0.8,264.8,M,-28.8,M,,*54 -58.8
$GPGGA,011051.00,3856.2361,N,09439.4912,W,2,11,0.8,264.1,M,-28.8,M,,*58 -57.2
$GPGGA,011052.00,3856.2444,N,09439.4912,W,2,11,1.0,263.9,M,-28.8,M,,*5D -56.7
$GPGGA,011053.00,3856.2527,N,09439.4902,W,2,11,0.8,263.7,M,-28.8,M,,*5E -57.2
$GPGGA,011054.00,3856.2610,N,09439.4893,W,2,11,0.8,263.6,M,-28.8,M,,*56 -57.8
$GPGGA,011056.00,3856.2776,N,09439.4873,W,2,11,0.8,263.3,M,-28.8,M,,*5E -57.6
$GPGGA,011057.00,3856.2859,N,09439.4863,W,2,11,0.8,263.3,M,-28.8,M,,*5C -56.2
$GPGGA,011058.00,3856.2942,N,09439.4863,W,2,11,0.8,263.2,M,-28.8,M,,*59 -57.8
$GPGGA,011059.00,3856.3025,N,09439.4854,W,2,11,0.8,263.1,M,-28.8,M,,*56 -58.0
$GPGGA,011101.00,3856.3188,N,09439.4834,W,2,11,0.8,262.5,M,-28.8,M,,*5F -58.3
$GPGGA,011102.00,3856.3269,N,09439.4824,W,2,11,0.8,261.9,M,-28.8,M,,*5E -57.6
$GPGGA,011103.00,3856.3350,N,09439.4814,W,2,11,0.8,261.1,M,-28.8,M,,*5F -59.2
$GPGGA,011104.00,3856.3433,N,09439.4805,W,2,10,0.9,260.1,M,-28.8,M,,*5B -60.9
$GPGGA,011106.00,3856.3596,N,09439.4795,W,2,11,0.8,259.2,M,-28.8,M,,*58 -57.4
$GPGGA,011107.00,3856.3679,N,09439.4785,W,2,10,0.8,258.6,M,-28.8,M,,*5E -57.8
$GPGGA,011108.00,3856.3765,N,09439.4775,W,2,10,0.9,257.6,M,-28.8,M,,*5C -59.8
$GPGGA,011109.00,3856.3848,N,09439.4766,W,2,10,0.9,257.2,M,-28.8,M,,*5B -61.7
$GPGGA,011111.00,3856.4014,N,09439.4756,W,2,09,1.3,257.6,M,-28.8,M,,*50 -61.6
$GPGGA,011112.00,3856.4094,N,09439.4756,W,2,09,1.3,257.4,M,-28.8,M,,*59 -59.4
$GPGGA,011113.00,3856.4177,N,09439.4756,W,2,11,1.3,256.9,M,-28.8,M,,*51 -62.5
$GPGGA,011114.00,3856.4258,N,09439.4756,W,2,10,0.9,256.8,M,-28.8,M,,*53 -62.5
$GPGGA,011116.00,3856.4421,N,09439.4756,W,2,11,0.9,254.8,M,-28.8,M,,*5A -60.3
$GPGGA,011117.00,3856.4500,N,09439.4756,W,2,11,0.9,253.8,M,-28.8,M,,*5E -61.7
$GPGGA,011118.00,3856.4575,N,09439.4756,W,2,11,0.9,253.9,M,-28.8,M,,*52 -61.4
$GPGGA,011119.00,3856.4646,N,09439.4756,W,2,12,0.9,254.3,M,-28.8,M,,*5E -58.9
$GPGGA,011121.00,3856.4785,N,09439.4756,W,2,12,0.8,255.4,M,-28.8,M,,*5C -61.2
$GPGGA,011122.00,3856.4856,N,09439.4756,W,2,12,0.8,255.1,M,-28.8,M,,*5B -61.3
$GPGGA,011123.00,3856.4922,N,09439.4756,W,2,12,1.2,254.6,M,-28.8,M,,*55 -59.7
$GPGGA,011124.00,3856.4983,N,09439.4756,W,2,11,0.9,254.9,M,-28.8,M,,*5F -58.9
$GPGGA,011126.00,3856.5083,N,09439.4766,W,2,11,0.8,255.1,M,-28.8,M,,*5E -61.6
$GPGGA,011127.00,3856.5120,N,09439.4766,W,2,12,0.8,255.1,M,-28.8,M,,*54 -63.5
$GPGGA,011128.00,3856.5144,N,09439.4766,W,2,12,0.8,255.6,M,-28.8,M,,*5E -57.0
$GPGGA,011129.00,3856.5161,N,09439.4766,W,2,12,0.8,255.8,M,-28.8,M,,*56 -57.7
$GPGGA,011131.00,3856.5166,N,09439.4766,W,2,11,0.9,257.3,M,-28.8,M,,*53 -58.7
$GPGGA,011132.00,3856.5161,N,09439.4766,W,2,11,0.8,259.1,M,-28.8,M,,*5A -58.8
$GPGGA,011133.00,3856.5159,N,09439.4756,W,2,11,0.8,260.3,M,-28.8,M,,*5B -58.6
$GPGGA,011134.00,3856.5156,N,09439.4756,W,2,11,0.8,261.3,M,-28.8,M,,*52 -58.9
$GPGGA,011136.00,3856.5154,N,09439.4756,W,2,10,0.9,263.1,M,-28.8,M,,*52 -58.8
$GPGGA,011137.00,3856.5151,N,09439.4756,W,2,10,0.9,264.1,M,-28.8,M,,*51 -58.6
$GPGGA,011138.00,3856.5149,N,09439.4746,W,2,10,0.9,264.8,M,-28.8,M,,*5F -58.8
$GPGGA,011139.00,3856.5149,N,09439.4746,W,2,10,0.9,265.6,M,-28.8,M,,*51 -58.6
$GPGGA,011141.00,3856.5146,N,09439.4746,W,2,10,0.9,266.6,M,-28.8,M,,*52 -58.6
$GPGGA,011142.00,3856.5146,N,09439.4746,W,2,10,0.9,267.0,M,-28.8,M,,*56 -59.0
$GPGGA,011143.00,3856.5149,N,09439.4746,W,2,10,0.9,267.2,M,-28.8,M,,*5A -60.5
$GPGGA,011144.00,3856.5154,N,09439.4746,W,2,11,1.0,267.3,M,-28.8,M,,*59 -59.9
$GPGGA,011146.00,3856.5195,N,09439.4756,W,2,11,0.8,265.9,M,-28.8,M,,*56 -63.6
$GPGGA,011147.00,3856.5227,N,09439.4775,W,2,11,0.8,264.4,M,-28.8,M,,*50 -55.9
$GPGGA,011148.00,3856.5254,N,09439.4814,W,2,11,0.8,264.1,M,-28.8,M,,*56 -58.4
$GPGGA,011149.00,3856.5271,N,09439.4863,W,2,10,1.2,263.6,M,-28.8,M,,*5A -60.1
$GPGGA,011151.00,3856.5286,N,09439.4980,W,2,11,0.8,263.1,M,-28.8,M,,*5A -61.6
$GPGGA,011152.00,3856.5291,N,09439.5049,W,2,12,0.8,262.4,M,-28.8,M,,*55 -63.7
$GPGGA,011153.00,3856.5291,N,09439.5127,W,2,12,0.8,262.2,M,-28.8,M,,*5B -64.4
$GPGGA,011154.00,3856.5288,N,09439.5215,W,2,12,0.8,263.1,M,-28.8,M,,*54 -64.2
$GPGGA,011156.00,3856.5281,N,09439.5381,W,2,10,0.9,265.0,M,-28.8,M,,*57 -61.3
$GPGGA,011157.00,3856.5281,N,09439.5479,W,2,11,1.0,265.2,M,-28.8,M,,*5D -60.3
$GPGGA,011158.00,3856.5278,N,09439.5576,W,2,10,1.2,265.6,M,-28.8,M,,*5D -62.7
$GPGGA,011159.00,3856.5278,N,09439.5674,W,2,12,1.2,265.6,M,-28.8,M,,*5F -64.7
$GPGGA,011201.00,3856.5278,N,09439.5859,W,2,09,2.6,266.6,M,-28.8,M,,*5E -60.6
$GPGGA,011202.00,3856.5278,N,09439.5938,W,2,09,1.0,266.7,M,-28.8,M,,*5F -62.6
$GPGGA,011203.00,3856.5278,N,09439.6016,W,2,10,1.0,266.8,M,-28.8,M,,*5F -61.4
$GPGGA,011204.00,3856.5278,N,09439.6084,W,2,11,1.0,266.3,M,-28.8,M,,*59 -64.7
$GPGGA,011206.00,3856.5276,N,09439.6250,W,2,09,1.0,265.9,M,-28.8,M,,*5E -65.3
$GPGGA,011207.00,3856.5278,N,09439.6338,W,2,09,1.0,266.0,M,-28.8,M,,*54 -60.4
$GPGGA,011208.00,3856.5278,N,09439.6436,W,2,10,1.0,265.8,M,-28.8,M,,*51 -63.3
$GPGGA,011209.00,3856.5281,N,09439.6533,W,2,09,1.0,266.1,M,-28.8,M,,*50 -63.6
$GPGGA,011211.00,3856.5281,N,09439.6748,W,2,10,0.9,265.9,M,-28.8,M,,*5C -63.1
$GPGGA,011212.00,3856.5281,N,09439.6855,W,2,10,1.2,266.4,M,-28.8,M,,*58 -64.3
$GPGGA,011213.00,3856.5281,N,09439.6963,W,2,10,1.2,266.6,M,-28.8,M,,*5F -61.4
$GPGGA,011214.00,3856.5281,N,09439.7070,W,2,11,1.3,266.3,M,-28.8,M,,*57 -65.3
$GPGGA,011216.00,3856.5283,N,09439.7295,W,2,11,0.9,264.2,M,-28.8,M,,*56 -63.4
$GPGGA,011217.00,3856.5283,N,09439.7402,W,2,11,0.9,264.2,M,-28.8,M,,*5F -65.5
$GPGGA,011218.00,3856.5283,N,09439.7510,W,2,10,0.9,264.0,M,-28.8,M,,*51 -61.6
$GPGGA,011219.00,3856.5283,N,09439.7617,W,2,10,0.9,263.8,M,-28.8,M,,*5B -62.1
$GPGGA,011221.00,3856.5281,N,09439.7842,W,2,10,0.9,263.8,M,-28.8,M,,*5C -63.1
$GPGGA,011222.00,3856.5281,N,09439.7959,W,2,10,0.9,263.6,M,-28.8,M,,*5A -63.8
$GPGGA,011223.00,3856.5278,N,09439.8076,W,2,09,1.2,263.4,M,-28.8,M,,*56 -63.3
$GPGGA,011224.00,3856.5276,N,09439.8184,W,2,11,0.9,263.3,M,-28.8,M,,*57 -64.1
$GPGGA,011226.00,3856.5261,N,09439.8418,W,2,11,0.9,263.5,M,-28.8,M,,*55 -64.4
$GPGGA,011227.00,3856.5251,N,09439.8525,W,2,11,0.9,263.5,M,-28.8,M,,*58 -63.0
$GPGGA,011228.00,3856.5239,N,09439.8643,W,2,11,0.9,263.5,M,-28.8,M,,*5A -61.4
$GPGGA,011229.00,3856.5225,N,09439.8750,W,2,11,0.9,263.6,M,-28.8,M,,*56 -63.5
$GPGGA,011231.00,3856.5195,N,09439.8975,W,2,11,0.9,263.6,M,-28.8,M,,*5E -62.4
$GPGGA,011232.00,3856.5178,N,09439.9082,W,2,11,0.9,263.6,M,-28.8,M,,*5E -62.5
$GPGGA,011233.00,3856.5166,N,09439.9189,W,2,11,1.0,263.6,M,-28.8,M,,*52 -62.3
$GPGGA,011234.00,3856.5151,N,09439.9297,W,2,10,1.0,263.7,M,-28.8,M,,*5D -61.7
$GPGGA,011236.00,3856.5129,N,09439.9502,W,2,10,0.9,264.1,M,-28.8,M,,*52 -62.3
$GPGGA,011237.00,3856.5120,N,09439.9600,W,2,11,0.9,264.2,M,-28.8,M,,*59 -63.0
$GPGGA,011238.00,3856.5112,N,09439.9688,W,2,11,0.9,264.4,M,-28.8,M,,*51 -61.4
$GPGGA,011239.00,3856.5105,N,09439.9775,W,2,11,0.9,264.7,M,-28.8,M,,*56 -60.7
$GPGGA,011241.00,3856.5095,N,09439.9932,W,2,11,0.9,265.1,M,-28.8,M,,*5B -64.8
$GPGGA,011242.00,3856.5093,N,09440.0000,W,2,11,0.9,265.2,M,-28.8,M,,*52 -63.1
$GPGGA,011243.00,3856.5090,N,09440.0068,W,2,12,0.9,265.4,M,-28.8,M,,*5B -59.8
$GPGGA,011244.00,3856.5090,N,09440.0117,W,2,12,0.9,265.6,M,-28.8,M,,*57 -60.9
$GPGGA,011246.00,3856.5088,N,09440.0205,W,2,12,0.9,265.9,M,-28.8,M,,*53 -66.9
$GPGGA,011247.00,3856.5088,N,09440.0234,W,2,12,0.9,266.0,M,-28.8,M,,*5A -63.6
$GPGGA,011248.00,3856.5088,N,09440.0254,W,2,12,0.9,266.2,M,-28.8,M,,*51 -61.4
$GPGGA,011249.00,3856.5088,N,09440.0273,W,2,12,0.9,266.2,M,-28.8,M,,*55 -64.6
$GPGGA,011251.00,3856.5088,N,09440.0283,W,2,11,0.9,266.3,M,-28.8,M,,*51 -62.4
$GPGGA,011252.00,3856.5088,N,09440.0283,W,2,11,0.9,266.3,M,-28.8,M,,*52 -62.2
$GPGGA,011253.00,3856.5088,N,09440.0283,W,2,11,0.9,266.5,M,-28.8,M,,*55 -62.3
$GPGGA,011254.00,3856.5088,N,09440.0283,W,2,11,0.9,266.6,M,-28.8,M,,*51 -62.0
$GPGGA,011256.00,3856.5085,N,09440.0283,W,2,11,0.9,267.0,M,-28.8,M,,*59 -62.0
$GPGGA,011257.00,3856.5085,N,09440.0283,W,2,11,0.9,267.1,M,-28.8,M,,*59 -62.0
$GPGGA,011258.00,3856.5085,N,09440.0283,W,2,11,0.9,267.2,M,-28.8,M,,*55 -62.0
$GPGGA,011259.00,3856.5085,N,09440.0283,W,2,11,0.9,267.2,M,-28.8,M,,*54 -62.0
$GPGGA,011301.00,3856.5085,N,09440.0283,W,2,11,0.9,267.3,M,-28.8,M,,*59 -62.3
$GPGGA,011302.00,3856.5083,N,09440.0283,W,2,11,0.9,267.3,M,-28.8,M,,*5C -62.0
$GPGGA,011303.00,3856.5083,N,09440.0283,W,2,11,0.9,267.3,M,-28.8,M,,*5D -62.3
$GPGGA,011304.00,3856.5083,N,09440.0283,W,2,11,0.9,267.4,M,-28.8,M,,*5D -62.1
$GPGGA,011306.00,3856.5083,N,09440.0283,W,2,11,0.9,267.6,M,-28.8,M,,*5D -62.1
$GPGGA,011307.00,3856.5083,N,09440.0283,W,2,11,0.9,267.7,M,-28.8,M,,*5D -62.2
$GPGGA,011308.00,3856.5083,N,09440.0283,W,2,11,0.9,267.8,M,-28.8,M,,*5D -62.0
$GPGGA,011309.00,3856.5083,N,09440.0283,W,2,11,0.9,267.9,M,-28.8,M,,*5D -62.1
$GPGGA,011311.00,3856.5083,N,09440.0283,W,2,11,0.9,267.9,M,-28.8,M,,*54 -63.9
$GPGGA,011312.00,3856.5083,N,09440.0283,W,2,11,0.9,268.0,M,-28.8,M,,*51 -62.9
$GPGGA,011313.00,3856.5083,N,09440.0283,W,2,11,0.9,268.0,M,-28.8,M,,*50 -61.8
$GPGGA,011314.00,3856.5083,N,09440.0283,W,2,11,0.9,268.1,M,-28.8,M,,*56 -61.5
$GPGGA,011316.00,3856.5083,N,09440.0283,W,2,11,0.9,268.2,M,-28.8,M,,*57 -62.3
$GPGGA,011317.00,3856.5083,N,09440.0283,W,2,11,0.9,268.2,M,-28.8,M,,*56 -62.7
$GPGGA,011318.00,3856.5083,N,09440.0283,W,2,11,0.9,268.3,M,-28.8,M,,*58 -62.4
$GPGGA,011319.00,3856.5083,N,09440.0283,W,2,11,0.9,268.4,M,-28.8,M,,*5E -62.4
$GPGGA,011321.00,3856.5083,N,09440.0283,W,2,11,0.9,268.5,M,-28.8,M,,*54 -62.5
$GPGGA,011322.00,3856.5083,N,09440.0283,W,2,11,0.9,268.5,M,-28.8,M,,*57 -62.5
$GPGGA,011323.00,3856.5083,N,09440.0283,W,2,11,0.9,268.5,M,-28.8,M,,*56 -62.8
$GPGGA,011324.00,3856.5083,N,09440.0283,W,2,11,0.9,268.5,M,-28.8,M,,*51 -62.7
$GPGGA,011326.00,3856.5083,N,09440.0283,W,2,11,0.9,268.5,M,-28.8,M,,*53 -62.3
$GPGGA,011327.00,3856.5083,N,09440.0283,W,2,11,0.9,268.4,M,-28.8,M,,*53 -62.4
$GPGGA,011328.00,3856.5083,N,09440.0283,W,2,11,0.9,268.4,M,-28.8,M,,*5C -62.6
$GPGGA,011329.00,3856.5083,N,09440.0283,W,2,11,0.9,268.4,M,-28.8,M,,*5D -62.6
$GPGGA,011331.00,3856.5083,N,09440.0283,W,2,11,0.9,268.4,M,-28.8,M,,*54 -62.7
$GPGGA,011332.00,3856.5083,N,09440.0283,W,2,11,0.9,268.3,M,-28.8,M,,*50 -62.5
$GPGGA,011333.00,3856.5083,N,09440.0283,W,2,11,0.9,268.3,M,-28.8,M,,*51 -62.4
$GPGGA,011334.00,3856.5083,N,09440.0283,W,2,11,0.9,268.3,M,-28.8,M,,*56 -62.4
$GPGGA,011336.00,3856.5083,N,09440.0283,W,2,11,0.9,268.3,M,-28.8,M,,*54 -62.5
$GPGGA,011337.00,3856.5083,N,09440.0283,W,2,11,0.9,268.3,M,-28.8,M,,*55 -62.4
$GPGGA,011338.00,3856.5083,N,09440.0283,W,2,11,0.9,268.2,M,-28.8,M,,*5B -62.3
$GPGGA,011339.00,3856.5083,N,09440.0283,W,2,11,0.9,268.0,M,-28.8,M,,*58 -62.3
$GPGGA,011341.00,3856.5085,N,09440.0283,W,2,11,0.9,267.8,M,-28.8,M,,*56 -62.0
$GPGGA,011342.00,3856.5085,N,09440.0283,W,2,12,0.9,267.8,M,-28.8,M,,*56 -62.0
$GPGGA,011343.00,3856.5085,N,09440.0283,W,2,11,0.9,267.7,M,-28.8,M,,*5B -62.5
$GPGGA,011344.00,3856.5085,N,09440.0283,W,2,11,0.9,267.6,M,-28.8,M,,*5D -62.6
$GPGGA,011346.00,3856.5085,N,09440.0283,W,2,11,0.9,267.6,M,-28.8,M,,*5F -62.5
$GPGGA,011347.00,3856.5085,N,09440.0283,W,2,11,0.9,267.6,M,-28.8,M,,*5E -62.5
$GPGGA,011348.00,3856.5085,N,09440.0283,W,2,11,0.9,267.4,M,-28.8,M,,*53 -62.5
$GPGGA,011349.00,3856.5085,N,09440.0283,W,2,11,0.9,267.2,M,-28.8,M,,*54 -62.4
$GPGGA,011351.00,3856.5088,N,09440.0283,W,2,11,0.9,266.8,M,-28.8,M,,*5B -62.0
$GPGGA,011352.00,3856.5088,N,09440.0283,W,2,11,0.9,266.7,M,-28.8,M,,*57 -61.8
$GPGGA,011353.00,3856.5088,N,09440.0283,W,2,11,0.9,266.6,M,-28.8,M,,*57 -61.4
$GPGGA,011354.00,3856.5088,N,09440.0283,W,2,11,0.9,266.5,M,-28.8,M,,*53 -61.3
$GPGGA,011356.00,3856.5088,N,09440.0283,W,2,11,0.9,266.3,M,-28.8,M,,*57 -62.3
$GPGGA,011357.00,3856.5088,N,09440.0283,W,2,11,0.9,266.3,M,-28.8,M,,*56 -62.5
$GPGGA,011358.00,3856.5088,N,09440.0283,W,2,11,0.9,266.1,M,-28.8,M,,*5B -62.6
$GPGGA,011359.00,3856.5088,N,09440.0283,W,2,11,0.9,266.0,M,-28.8,M,,*5B -62.8
$GPGGA,011401.00,3856.5088,N,09440.0283,W,2,11,0.9,265.8,M,-28.8,M,,*5A -62.2
$GPGGA,011402.00,3856.5088,N,09440.0283,W,2,11,0.9,265.7,M,-28.8,M,,*56 -62.5
$GPGGA,011403.00,3856.5088,N,09440.0283,W,2,11,0.9,265.7,M,-28.8,M,,*57 -62.0
$GPGGA,011404.00,3856.5088,N,09440.0283,W,2,11,0.9,265.7,M,-28.8,M,,*50 -60.4
$GPGGA,011406.00,3856.5088,N,09440.0313,W,2,11,0.9,265.9,M,-28.8,M,,*54 -61.7
$GPGGA,011407.00,3856.5088,N,09440.0342,W,2,11,0.9,266.0,M,-28.8,M,,*5B -61.3
$GPGGA,011408.00,3856.5088,N,09440.0381,W,2,11,0.9,266.2,M,-28.8,M,,*59 -61.4
$GPGGA,011409.00,3856.5088,N,09440.0430,W,2,11,0.9,266.4,M,-28.8,M,,*53 -65.3
$GPGGA,011411.00,3856.5090,N,09440.0557,W,2,11,0.9,266.6,M,-28.8,M,,*51 -65.2
$GPGGA,011412.00,3856.5090,N,09440.0625,W,2,11,0.9,266.4,M,-28.8,M,,*56 -62.9
$GPGGA,011413.00,3856.5090,N,09440.0703,W,2,11,0.9,266.2,M,-28.8,M,,*54 -60.4
$GPGGA,011414.00,3856.5095,N,09440.0791,W,2,10,0.9,266.1,M,-28.8,M,,*5F -62.4
$GPGGA,011416.00,3856.5112,N,09440.0977,W,2,11,0.9,265.7,M,-28.8,M,,*51 -59.1
$GPGGA,011417.00,3856.5129,N,09440.1074,W,2,11,0.9,265.6,M,-28.8,M,,*52 -59.5
$GPGGA,011418.00,3856.5149,N,09440.1172,W,2,11,0.9,265.4,M,-28.8,M,,*5E -62.5
$GPGGA,011419.00,3856.5173,N,09440.1270,W,2,11,0.9,265.3,M,-28.8,M,,*50 -61.5
$GPGGA,011421.00,3856.5210,N,09440.1475,W,2,11,0.9,265.0,M,-28.8,M,,*5D -60.4
$GPGGA,011422.00,3856.5220,N,09440.1582,W,2,11,0.9,265.1,M,-28.8,M,,*55 -62.5
$GPGGA,011423.00,3856.5225,N,09440.1689,W,2,11,0.9,265.1,M,-28.8,M,,*59 -64.6
$GPGGA,011424.00,3856.5227,N,09440.1807,W,2,10,0.9,265.2,M,-28.8,M,,*56 -63.1
$GPGGA,011426.00,3856.5232,N,09440.2021,W,2,11,0.9,265.1,M,-28.8,M,,*5D -59.0
$GPGGA,011427.00,3856.5234,N,09440.2139,W,2,10,0.9,265.1,M,-28.8,M,,*53 -62.1
$GPGGA,011428.00,3856.5237,N,09440.2256,W,2,10,0.9,264.9,M,-28.8,M,,*5C -63.7
$GPGGA,011429.00,3856.5239,N,09440.2373,W,2,11,0.9,264.8,M,-28.8,M,,*55 -62.2
$GPGGA,011431.00,3856.5247,N,09440.2607,W,2,11,0.9,264.9,M,-28.8,M,,*52 -61.9
$GPGGA,011432.00,3856.5249,N,09440.2725,W,2,11,0.9,265.0,M,-28.8,M,,*56 -62.4
$GPGGA,011433.00,3856.5251,N,09440.2832,W,2,11,0.9,265.3,M,-28.8,M,,*54 -60.4
$GPGGA,011434.00,3856.5254,N,09440.2949,W,2,11,0.9,265.4,M,-28.8,M,,*5C -61.0
$GPGGA,011436.00,3856.5261,N,09440.3184,W,2,11,0.9,265.0,M,-28.8,M,,*54 -61.6
$GPGGA,011437.00,3856.5264,N,09440.3301,W,2,11,0.9,264.7,M,-28.8,M,,*59 -63.9
$GPGGA,011438.00,3856.5266,N,09440.3418,W,2,11,0.9,264.5,M,-28.8,M,,*59 -63.3
$GPGGA,011439.00,3856.5269,N,09440.3535,W,2,11,0.9,264.3,M,-28.8,M,,*5F -63.6
$GPGGA,011441.00,3856.5271,N,09440.3770,W,2,11,0.9,264.2,M,-28.8,M,,*5B -61.4
$GPGGA,011442.00,3856.5273,N,09440.3887,W,2,11,0.9,264.4,M,-28.8,M,,*5B -62.3
$GPGGA,011443.00,3856.5273,N,09440.4004,W,2,11,0.9,264.6,M,-28.8,M,,*5C -61.3
$GPGGA,011444.00,3856.5271,N,09440.4121,W,2,11,0.9,264.5,M,-28.8,M,,*5C -61.6
$GPGGA,011446.00,3856.5271,N,09440.4355,W,2,11,0.9,264.7,M,-28.8,M,,*5D -62.4
$GPGGA,011447.00,3856.5271,N,09440.4482,W,2,11,0.9,264.6,M,-28.8,M,,*50 -62.7
$GPGGA,011448.00,3856.5273,N,09440.4600,W,2,11,0.9,264.4,M,-28.8,M,,*57 -61.0
$GPGGA,011449.00,3856.5273,N,09440.4717,W,2,11,0.9,264.2,M,-28.8,M,,*57 -62.7
$GPGGA,011451.00,3856.5276,N,09440.4961,W,2,11,0.9,263.9,M,-28.8,M,,*58 -63.1
$GPGGA,011452.00,3856.5278,N,09440.5078,W,2,11,0.9,263.9,M,-28.8,M,,*55 -61.8
$GPGGA,011453.00,3856.5278,N,09440.5205,W,2,11,0.9,264.1,M,-28.8,M,,*53 -64.3
$GPGGA,011454.00,3856.5278,N,09440.5322,W,2,11,0.9,264.7,M,-28.8,M,,*56 -64.0
$GPGGA,011456.00,3856.5281,N,09440.5566,W,2,11,0.9,265.4,M,-28.8,M,,*56 -61.9
$GPGGA,011457.00,3856.5281,N,09440.5684,W,2,11,0.9,265.3,M,-28.8,M,,*5F -63.0
$GPGGA,011458.00,3856.5281,N,09440.5811,W,2,11,0.9,265.2,M,-28.8,M,,*53 -64.2
$GPGGA,011459.00,3856.5281,N,09440.5928,W,2,10,0.9,265.1,M,-28.8,M,,*5B -64.9
$GPGGA,011501.00,3856.5283,N,09440.6172,W,2,10,1.0,265.1,M,-28.8,M,,*59 -61.2
$GPGGA,011502.00,3856.5283,N,09440.6299,W,2,11,0.9,265.3,M,-28.8,M,,*57 -64.2
$GPGGA,011503.00,3856.5283,N,09440.6426,W,2,11,0.9,265.6,M,-28.8,M,,*51 -63.9
$GPGGA,011504.00,3856.5283,N,09440.6543,W,2,11,0.9,265.9,M,-28.8,M,,*5B -64.6
$GPGGA,011506.00,3856.5283,N,09440.6787,W,2,11,0.9,266.6,M,-28.8,M,,*5F -60.7
$GPGGA,011507.00,3856.5283,N,09440.6914,W,2,11,0.9,266.9,M,-28.8,M,,*55 -64.5
$GPGGA,011508.00,3856.5283,N,09440.7031,W,2,11,0.9,267.3,M,-28.8,M,,*5E -63.4
$GPGGA,011509.00,3856.5283,N,09440.7158,W,2,11,0.9,267.9,M,-28.8,M,,*5B -63.7
$GPGGA,011511.00,3856.5283,N,09440.7402,W,2,11,0.9,268.8,M,-28.8,M,,*56 -64.0
$GPGGA,011512.00,3856.5286,N,09440.7520,W,2,11,0.9,268.6,M,-28.8,M,,*5F -62.9
$GPGGA,011513.00,3856.5286,N,09440.7646,W,2,11,0.9,268.6,M,-28.8,M,,*5D -61.0
$GPGGA,011514.00,3856.5286,N,09440.7764,W,2,11,0.9,269.2,M,-28.8,M,,*5E -61.1
$GPGGA,011516.00,3856.5288,N,09440.8008,W,2,10,1.4,271.1,M,-28.8,M,,*57 -60.4
$GPGGA,011517.00,3856.5288,N,09440.8125,W,2,10,0.9,272.0,M,-28.8,M,,*56 -62.5
$GPGGA,011518.00,3856.5288,N,09440.8242,W,2,10,0.9,273.1,M,-28.8,M,,*5B -63.3
$GPGGA,011519.00,3856.5286,N,09440.8359,W,2,11,0.9,274.2,M,-28.8,M,,*5A -62.1
$GPGGA,011521.00,3856.5281,N,09440.8594,W,2,11,0.9,275.7,M,-28.8,M,,*55 -59.6
$GPGGA,011522.00,3856.5281,N,09440.8711,W,2,11,0.9,276.3,M,-28.8,M,,*5E -63.7
$GPGGA,011523.00,3856.5278,N,09440.8818,W,2,11,0.9,276.6,M,-28.8,M,,*5A -62.3
$GPGGA,011524.00,3856.5278,N,09440.8936,W,2,11,0.9,277.1,M,-28.8,M,,*56 -63.7
$GPGGA,011526.00,3856.5278,N,09440.9180,W,2,11,0.9,277.4,M,-28.8,M,,*55 -64.5
$GPGGA,011527.00,3856.5281,N,09440.9297,W,2,11,0.9,277.6,M,-28.8,M,,*55 -63.6
$GPGGA,011528.00,3856.5281,N,09440.9414,W,2,11,0.9,277.4,M,-28.8,M,,*55 -63.1
$GPGGA,011529.00,3856.5281,N,09440.9531,W,2,11,0.9,277.3,M,-28.8,M,,*55 -64.6
$GPGGA,011531.00,3856.5281,N,09440.9775,W,2,11,0.9,277.1,M,-28.8,M,,*5C -61.8
$GPGGA,011532.00,3856.5281,N,09440.9902,W,2,11,0.9,276.7,M,-28.8,M,,*56 -65.5
$GPGGA,011533.00,3856.5281,N,09441.0020,W,2,11,0.9,276.1,M,-28.8,M,,*50 -64.0
$GPGGA,011534.00,3856.5281,N,09441.0146,W,2,11,0.9,275.4,M,-28.8,M,,*50 -64.1
$GPGGA,011536.00,3856.5283,N,09441.0400,W,2,11,0.9,273.6,M,-28.8,M,,*53 -65.9
$GPGGA,011537.00,3856.5286,N,09441.0527,W,2,11,0.9,272.8,M,-28.8,M,,*5C -65.3
$GPGGA,011538.00,3856.5288,N,09441.0645,W,2,11,0.9,272.3,M,-28.8,M,,*51 -62.7
$GPGGA,011539.00,3856.5291,N,09441.0771,W,2,11,0.9,272.3,M,-28.8,M,,*5E -64.2
$GPGGA,011541.00,3856.5295,N,09441.0996,W,2,11,0.9,273.0,M,-28.8,M,,*50 -63.7
$GPGGA,011542.00,3856.5298,N,09441.1104,W,2,11,0.9,273.7,M,-28.8,M,,*5B -61.5
$GPGGA,011543.00,3856.5303,N,09441.1191,W,2,10,0.9,274.5,M,-28.8,M,,*51 -62.9
$GPGGA,011544.00,3856.5305,N,09441.1270,W,2,11,0.9,275.0,M,-28.8,M,,*59 -61.1
$GPGGA,011546.00,3856.5310,N,09441.1406,W,2,11,0.9,275.7,M,-28.8,M,,*5F -60.2
$GPGGA,011547.00,3856.5310,N,09441.1455,W,2,11,1.0,275.9,M,-28.8,M,,*5E -61.4
$GPGGA,011548.00,3856.5310,N,09441.1494,W,2,11,1.2,276.1,M,-28.8,M,,*55 -63.3
$GPGGA,011549.00,3856.5310,N,09441.1523,W,2,11,0.9,276.3,M,-28.8,M,,*51 -65.2
$GPGGA,011551.00,3856.5313,N,09441.1563,W,2,11,0.9,276.5,M,-28.8,M,,*59 -58.0
$GPGGA,011552.00,3856.5313,N,09441.1572,W,2,11,0.9,276.6,M,-28.8,M,,*59 -59.6
$GPGGA,011553.00,3856.5313,N,09441.1582,W,2,11,0.9,276.8,M,-28.8,M,,*59 -59.9
$GPGGA,011554.00,3856.5313,N,09441.1582,W,2,11,0.9,276.6,M,-28.8,M,,*50 -60.1
$GPGGA,011556.00,3856.5313,N,09441.1582,W,2,11,0.9,276.5,M,-28.8,M,,*51 -60.9
$GPGGA,011557.00,3856.5313,N,09441.1582,W,2,11,0.9,276.5,M,-28.8,M,,*50 -57.8
$GPGGA,011558.00,3856.5313,N,09441.1582,W,2,11,0.9,276.5,M,-28.8,M,,*5F -59.2
$GPGGA,011559.00,3856.5313,N,09441.1582,W,2,11,0.9,276.5,M,-28.8,M,,*5E -59.2
$GPGGA,011601.00,3856.5313,N,09441.1602,W,2,11,0.9,276.5,M,-28.8,M,,*5B -59.6
$GPGGA,011602.00,3856.5315,N,09441.1621,W,2,11,0.9,276.5,M,-28.8,M,,*5F -62.6
$GPGGA,011603.00,3856.5315,N,09441.1641,W,2,11,0.9,276.6,M,-28.8,M,,*5B -56.5
$GPGGA,011604.00,3856.5315,N,09441.1641,W,2,11,0.9,276.5,M,-28.8,M,,*5F -56.2
$GPGGA,011606.00,3856.5317,N,09441.1660,W,2,11,0.9,276.7,M,-28.8,M,,*5E -68.0
$GPGGA,011607.00,3856.5325,N,09441.1680,W,2,11,0.9,276.8,M,-28.8,M,,*5F -66.1
$GPGGA,011608.00,3856.5339,N,09441.1699,W,2,11,0.9,276.9,M,-28.8,M,,*54 -61.5
$GPGGA,011609.00,3856.5366,N,09441.1709,W,2,11,0.9,276.9,M,-28.8,M,,*57 -59.9
$GPGGA,011611.00,3856.5442,N,09441.1709,W,2,11,0.9,276.9,M,-28.8,M,,*5F -59.0
$GPGGA,011612.00,3856.5491,N,09441.1709,W,2,11,0.9,276.8,M,-28.8,M,,*53 -60.3
$GPGGA,011613.00,3856.5544,N,09441.1709,W,2,11,0.9,276.5,M,-28.8,M,,*56 -59.9
$GPGGA,011614.00,3856.5603,N,09441.1709,W,2,11,0.9,276.2,M,-28.8,M,,*56 -60.2
$GPGGA,011616.00,3856.5735,N,09441.1709,W,2,11,0.9,275.7,M,-28.8,M,,*56 -60.5
$GPGGA,011617.00,3856.5808,N,09441.1709,W,2,11,0.9,275.3,M,-28.8,M,,*52 -59.5
$GPGGA,011618.00,3856.5884,N,09441.1709,W,2,11,0.9,275.3,M,-28.8,M,,*59 -62.4
$GPGGA,011619.00,3856.5962,N,09441.1709,W,2,11,0.9,274.8,M,-28.8,M,,*5B -60.2
$GPGGA,011621.00,3856.6125,N,09441.1709,W,2,11,0.9,274.1,M,-28.8,M,,*51 -60.7
$GPGGA,011622.00,3856.6208,N,09441.1709,W,2,11,0.9,273.8,M,-28.8,M,,*50 -59.7
$GPGGA,011623.00,3856.6292,N,09441.1709,W,2,11,0.9,273.6,M,-28.8,M,,*5C -60.1
$GPGGA,011624.00,3856.6379,N,09441.1709,W,2,11,1.0,273.4,M,-28.8,M,,*55 -59.2
$GPGGA,011626.00,3856.6555,N,09441.1699,W,2,11,0.9,272.6,M,-28.8,M,,*5C -58.6
$GPGGA,011627.00,3856.6646,N,09441.1699,W,2,11,0.9,272.4,M,-28.8,M,,*5E -59.8
$GPGGA,011628.00,3856.6733,N,09441.1709,W,2,11,0.9,272.2,M,-28.8,M,,*5C -61.1
$GPGGA,011629.00,3856.6824,N,09441.1709,W,2,11,0.9,272.1,M,-28.8,M,,*57 -59.6
$GPGGA,011631.00,3856.7002,N,09441.1719,W,2,10,0.9,271.5,M,-28.8,M,,*54 -61.3
$GPGGA,011632.00,3856.7092,N,09441.1719,W,2,10,0.9,271.7,M,-28.8,M,,*5C -60.9
$GPGGA,011633.00,3856.7180,N,09441.1719,W,2,11,0.9,271.5,M,-28.8,M,,*5C -59.5
$GPGGA,011634.00,3856.7268,N,09441.1719,W,2,11,0.9,271.6,M,-28.8,M,,*5D -61.0
$GPGGA,011636.00,3856.7441,N,09441.1719,W,2,11,1.3,272.0,M,-28.8,M,,*5C -62.6
$GPGGA,011637.00,3856.7527,N,09441.1719,W,2,11,0.9,272.5,M,-28.8,M,,*52 -59.7
$GPGGA,011638.00,3856.7612,N,09441.1719,W,2,11,0.9,273.0,M,-28.8,M,,*5C -61.6
$GPGGA,011639.00,3856.7695,N,09441.1719,W,2,11,0.9,273.3,M,-28.8,M,,*51 -61.5
$GPGGA,011641.00,3856.7864,N,09441.1719,W,2,11,0.9,274.2,M,-28.8,M,,*58 -59.1
$GPGGA,011642.00,3856.7947,N,09441.1719,W,2,11,0.9,274.7,M,-28.8,M,,*5E -60.9
$GPGGA,011643.00,3856.8032,N,09441.1719,W,2,11,1.0,275.0,M,-28.8,M,,*55 -62.2
$GPGGA,011644.00,3856.8115,N,09441.1719,W,2,11,0.9,275.5,M,-28.8,M,,*5B -63.9
$GPGGA,011646.00,3856.8274,N,09441.1719,W,2,11,0.9,276.6,M,-28.8,M,,*5D -62.8
$GPGGA,011647.00,3856.8352,N,09441.1709,W,2,11,0.9,277.1,M,-28.8,M,,*5E -60.6
$GPGGA,011648.00,3856.8428,N,09441.1709,W,2,10,0.9,277.8,M,-28.8,M,,*53 -61.9
$GPGGA,011649.00,3856.8503,N,09441.1709,W,2,11,1.2,278.4,M,-28.8,M,,*52 -60.1
$GPGGA,011651.00,3856.8650,N,09441.1709,W,2,11,0.9,279.6,M,-28.8,M,,*57 -60.8
$GPGGA,011652.00,3856.8723,N,09441.1709,W,2,11,0.9,280.1,M,-28.8,M,,*50 -62.5
$GPGGA,011653.00,3856.8794,N,09441.1709,W,2,11,0.9,280.3,M,-28.8,M,,*5F -59.3
$GPGGA,011654.00,3856.8860,N,09441.1709,W,2,10,0.9,280.7,M,-28.8,M,,*59 -65.0
$GPGGA,011656.00,3856.8982,N,09441.1699,W,2,11,0.9,282.0,M,-28.8,M,,*5A -61.4
$GPGGA,011657.00,3856.9041,N,09441.1699,W,2,11,1.0,282.4,M,-28.8,M,,*50 -60.7
$GPGGA,011658.00,3856.9092,N,09441.1699,W,2,11,1.2,283.1,M,-28.8,M,,*57 -58.7
$GPGGA,011659.00,3856.9138,N,09441.1699,W,2,10,0.9,283.5,M,-28.8,M,,*58 -59.2
$GPGGA,011701.00,3856.9209,N,09441.1699,W,2,11,0.9,283.9,M,-28.8,M,,*58 -63.1
$GPGGA,011702.00,3856.9231,N,09441.1699,W,2,10,1.3,284.2,M,-28.8,M,,*56 -58.7
$GPGGA,011703.00,3856.9253,N,09441.1699,W,2,11,0.9,284.1,M,-28.8,M,,*5A -59.5
$GPGGA,011704.00,3856.9280,N,09441.1699,W,2,11,0.9,284.1,M,-28.8,M,,*53 -62.7
$GPGGA,011706.00,3856.9351,N,09441.1699,W,2,11,0.9,283.9,M,-28.8,M,,*53 -58.9
$GPGGA,011707.00,3856.9397,N,09441.1699,W,2,11,0.9,283.9,M,-28.8,M,,*58 -59.3
$GPGGA,011708.00,3856.9448,N,09441.1699,W,2,11,0.9,283.8,M,-28.8,M,,*53 -62.7
$GPGGA,011709.00,3856.9507,N,09441.1699,W,2,11,0.9,283.5,M,-28.8,M,,*55 -61.2
$GPGGA,011711.00,3856.9634,N,09441.1699,W,2,11,0.9,282.6,M,-28.8,M,,*5D -59.5
$GPGGA,011712.00,3856.9702,N,09441.1699,W,2,11,0.9,281.8,M,-28.8,M,,*57 -58.6
$GPGGA,011713.00,3856.9771,N,09441.1699,W,2,11,0.9,281.4,M,-28.8,M,,*5E -58.0
$GPGGA,011714.00,3856.9844,N,09441.1709,W,2,11,0.9,281.0,M,-28.8,M,,*5C -56.9
$GPGGA,011716.00,3856.9988,N,09441.1719,W,2,11,0.9,280.0,M,-28.8,M,,*5F -60.7
$GPGGA,011717.00,3857.0061,N,09441.1719,W,2,11,0.9,279.1,M,-28.8,M,,*5F -60.3
$GPGGA,011718.00,3857.0134,N,09441.1729,W,2,11,0.9,278.6,M,-28.8,M,,*54 -57.3
$GPGGA,011719.00,3857.0210,N,09441.1729,W,2,11,0.9,278.8,M,-28.8,M,,*5E -60.1
$GPGGA,011721.00,3857.0359,N,09441.1729,W,2,11,0.9,278.6,M,-28.8,M,,*57 -60.9
$GPGGA,011722.00,3857.0435,N,09441.1729,W,2,11,1.0,278.4,M,-28.8,M,,*53 -64.6
$GPGGA,011723.00,3857.0513,N,09441.1729,W,2,11,0.9,278.2,M,-28.8,M,,*59 -58.7
$GPGGA,011724.00,3857.0588,N,09441.1729,W,2,11,0.9,277.8,M,-28.8,M,,*59 -57.9
$GPGGA,011726.00,3857.0747,N,09441.1729,W,2,11,0.9,277.6,M,-28.8,M,,*54 -59.2
$GPGGA,011727.00,3857.0825,N,09441.1729,W,2,11,1.1,277.5,M,-28.8,M,,*54 -59.0
$GPGGA,011728.00,3857.0908,N,09441.1729,W,2,11,0.9,277.2,M,-28.8,M,,*5B -61.7
$GPGGA,011729.00,3857.0989,N,09441.1729,W,2,11,0.9,277.1,M,-28.8,M,,*50 -58.5
$GPGGA,011731.00,3857.1155,N,09441.1729,W,2,11,0.9,276.5,M,-28.8,M,,*54 -58.6
$GPGGA,011732.00,3857.1238,N,09441.1729,W,2,11,0.9,276.4,M,-28.8,M,,*5E -59.2
$GPGGA,011733.00,3857.1321,N,09441.1729,W,2,11,0.9,275.8,M,-28.8,M,,*59 -59.5
$GPGGA,011734.00,3857.1404,N,09441.1729,W,2,11,0.9,275.7,M,-28.8,M,,*51 -62.3
$GPGGA,011736.00,3857.1567,N,09441.1729,W,2,11,0.9,274.8,M,-28.8,M,,*59 -63.3
$GPGGA,011737.00,3857.1648,N,09441.1729,W,2,11,0.9,274.1,M,-28.8,M,,*5F -57.3
$GPGGA,011738.00,3857.1729,N,09441.1729,W,2,11,0.9,273.8,M,-28.8,M,,*58 -59.2
$GPGGA,011739.00,3857.1809,N,09441.1729,W,2,11,0.9,273.6,M,-28.8,M,,*5A -60.1
$GPGGA,011741.00,3857.1968,N,09441.1729,W,2,11,0.9,273.6,M,-28.8,M,,*53 -57.9
$GPGGA,011742.00,3857.2048,N,09441.1729,W,2,11,0.9,273.6,M,-28.8,M,,*58 -59.8
$GPGGA,011743.00,3857.2129,N,09441.1729,W,2,11,0.9,273.7,M,-28.8,M,,*5E -59.2
$GPGGA,011744.00,3857.2209,N,09441.1729,W,2,11,0.9,273.2,M,-28.8,M,,*5D -57.8
$GPGGA,011746.00,3857.2371,N,09441.1719,W,2,11,0.9,272.4,M,-28.8,M,,*55 -61.1
$GPGGA,011747.00,3857.2451,N,09441.1719,W,2,11,0.9,272.1,M,-28.8,M,,*54 -59.3
$GPGGA,011748.00,3857.2532,N,09441.1719,W,2,11,1.3,272.6,M,-28.8,M,,*53 -59.3
$GPGGA,011749.00,3857.2612,N,09441.1729,W,2,11,0.9,272.9,M,-28.8,M,,*54 -58.1
$GPGGA,011751.00,3857.2766,N,09441.1729,W,2,11,0.9,273.3,M,-28.8,M,,*54 -57.9
$GPGGA,011752.00,3857.2837,N,09441.1729,W,2,11,0.9,273.6,M,-28.8,M,,*59 -61.3
$GPGGA,011753.00,3857.2900,N,09441.1719,W,2,11,0.9,274.0,M,-28.8,M,,*5F -58.6
$GPGGA,011754.00,3857.2954,N,09441.1719,W,2,11,1.0,274.3,M,-28.8,M,,*52 -60.3
$GPGGA,011756.00,3857.3044,N,09441.1719,W,2,11,0.9,274.8,M,-28.8,M,,*5A -59.8
$GPGGA,011757.00,3857.3074,N,09441.1719,W,2,11,1.0,274.8,M,-28.8,M,,*50 -66.4
$GPGGA,011758.00,3857.3093,N,09441.1699,W,2,11,0.9,275.1,M,-28.8,M,,*5F -60.6
$GPGGA,011759.00,3857.3105,N,09441.1680,W,2,11,0.9,275.4,M,-28.8,M,,*5D -62.0
$GPGGA,011801.00,3857.3110,N,09441.1621,W,2,11,0.9,276.5,M,-28.8,M,,*52 -62.2
$GPGGA,011802.00,3857.3110,N,09441.1582,W,2,11,0.9,277.0,M,-28.8,M,,*5F -63.3
$GPGGA,011803.00,3857.3110,N,09441.1543,W,2,11,0.9,277.4,M,-28.8,M,,*57 -63.2
$GPGGA,011804.00,3857.3110,N,09441.1494,W,2,11,0.9,277.8,M,-28.8,M,,*57 -59.7
$GPGGA,011806.00,3857.3115,N,09441.1406,W,2,11,0.9,278.5,M,-28.8,M,,*59 -61.7
$GPGGA,011807.00,3857.3120,N,09441.1357,W,2,11,0.9,278.7,M,-28.8,M,,*5F -63.0
$GPGGA,011808.00,3857.3125,N,09441.1309,W,2,11,0.9,279.1,M,-28.8,M,,*59 -61.0
$GPGGA,011809.00,3857.3132,N,09441.1270,W,2,11,0.9,279.4,M,-28.8,M,,*54 -62.4
$GPGGA,011811.00,3857.3140,N,09441.1182,W,2,11,0.9,279.9,M,-28.8,M,,*5B -62.2
$GPGGA,011812.00,3857.3140,N,09441.1143,W,2,11,0.9,280.1,M,-28.8,M,,*5B -60.9
$GPGGA,011813.00,3857.3140,N,09441.1094,W,2,11,0.9,280.3,M,-28.8,M,,*53 -62.0
$GPGGA,011814.00,3857.3140,N,09441.1055,W,2,11,0.9,280.5,M,-28.8,M,,*5F -62.0
$GPGGA,011816.00,3857.3140,N,09441.0986,W,2,11,0.9,280.8,M,-28.8,M,,*56 -60.9
$GPGGA,011817.00,3857.3147,N,09441.0967,W,2,11,0.9,281.0,M,-28.8,M,,*56 -63.2
$GPGGA,011818.00,3857.3159,N,09441.0957,W,2,11,0.9,281.1,M,-28.8,M,,*54 -62.3
$GPGGA,011819.00,3857.3174,N,09441.0957,W,2,11,0.9,281.0,M,-28.8,M,,*5B -61.5
$GPGGA,011821.00,3857.3188,N,09441.0957,W,2,11,0.9,280.9,M,-28.8,M,,*5B -65.1
$GPGGA,011822.00,3857.3191,N,09441.0957,W,2,11,0.9,281.0,M,-28.8,M,,*58 -64.9
$GPGGA,011823.00,3857.3191,N,09441.0957,W,2,11,0.9,281.1,M,-28.8,M,,*58 -65.0
$GPGGA,011824.00,3857.3191,N,09441.0957,W,2,11,0.9,281.0,M,-28.8,M,,*5E -64.8
$GPGGA,011826.00,3857.3191,N,09441.0957,W,2,11,0.9,281.1,M,-28.8,M,,*5D -64.7
#gps_message RSSI(dBm)
$GPGGA,014951.00,3857.3184,N,09441.0947,W,2,10,0.9,281.7,M,-28.8,M,,*5B -64.3
$GPGGA,014952.00,3857.3184,N,09441.0947,W,2,10,0.9,281.7,M,-28.8,M,,*58 -64.3
$GPGGA,014953.00,3857.3186,N,09441.0947,W,2,10,0.9,281.7,M,-28.8,M,,*5B -64.1
$GPGGA,014954.00,3857.3186,N,09441.0947,W,2,10,0.9,281.9,M,-28.8,M,,*52 -64.2
$GPGGA,014956.00,3857.3186,N,09441.0947,W,2,10,0.9,282.3,M,-28.8,M,,*59 -64.0
$GPGGA,014957.00,3857.3186,N,09441.0947,W,2,10,0.9,282.3,M,-28.8,M,,*58 -64.1
$GPGGA,014958.00,3857.3186,N,09441.0947,W,2,10,0.9,282.4,M,-28.8,M,,*50 -64.1
$GPGGA,014959.00,3857.3186,N,09441.0947,W,2,10,0.9,282.3,M,-28.8,M,,*56 -64.3
$GPGGA,015001.00,3857.3186,N,09441.0947,W,2,10,0.9,282.4,M,-28.8,M,,*54 -64.1
$GPGGA,015002.00,3857.3186,N,09441.0947,W,2,10,0.9,282.5,M,-28.8,M,,*56 -64.1
$GPGGA,015003.00,3857.3186,N,09441.0947,W,2,10,0.9,282.6,M,-28.8,M,,*54 -63.9
$GPGGA,015004.00,3857.3184,N,09441.0947,W,2,10,0.9,282.7,M,-28.8,M,,*50 -64.2
$GPGGA,015006.00,3857.3184,N,09441.0947,W,2,10,0.9,282.8,M,-28.8,M,,*5D -64.2
$GPGGA,015007.00,3857.3184,N,09441.0947,W,2,10,0.9,282.8,M,-28.8,M,,*5C -63.2
$GPGGA,015008.00,3857.3181,N,09441.0947,W,2,10,0.9,282.8,M,-28.8,M,,*56 -61.7
$GPGGA,015009.00,3857.3179,N,09441.0947,W,2,10,0.9,282.7,M,-28.8,M,,*5F -60.4
$GPGGA,015011.00,3857.3169,N,09441.0947,W,2,10,0.9,282.5,M,-28.8,M,,*55 -63.5
$GPGGA,015012.00,3857.3162,N,09441.0957,W,2,10,0.9,282.5,M,-28.8,M,,*5C -61.5
$GPGGA,015013.00,3857.3157,N,09441.0957,W,2,10,0.9,282.4,M,-28.8,M,,*5A -63.4
$GPGGA,015014.00,3857.3152,N,09441.0957,W,2,10,0.9,282.4,M,-28.8,M,,*58 -62.9
$GPGGA,015016.00,3857.3152,N,09441.0957,W,2,10,0.9,282.6,M,-28.8,M,,*58 -63.4
$GPGGA,015017.00,3857.3154,N,09441.0947,W,2,10,0.9,282.6,M,-28.8,M,,*5E -65.7
$GPGGA,015018.00,3857.3157,N,09441.0938,W,2,10,0.9,282.7,M,-28.8,M,,*5B -61.2
$GPGGA,015019.00,3857.3157,N,09441.0918,W,2,10,0.9,282.7,M,-28.8,M,,*58 -65.2
$GPGGA,015021.00,3857.3154,N,09441.0869,W,2,10,0.9,283.0,M,-28.8,M,,*51 -62.7
$GPGGA,015022.00,3857.3152,N,09441.0840,W,2,10,0.9,283.0,M,-28.8,M,,*5F -62.8
$GPGGA,015023.00,3857.3149,N,09441.0811,W,2,10,0.9,283.1,M,-28.8,M,,*51 -60.7
$GPGGA,015024.00,3857.3149,N,09441.0781,W,2,10,0.9,283.2,M,-28.8,M,,*53 -62.5
$GPGGA,015026.00,3857.3147,N,09441.0723,W,2,10,1.0,283.2,M,-28.8,M,,*5F -64.6
$GPGGA,015027.00,3857.3149,N,09441.0684,W,2,10,1.0,283.2,M,-28.8,M,,*5C -63.1
$GPGGA,015028.00,3857.3149,N,09441.0654,W,2,10,1.0,283.2,M,-28.8,M,,*5E -63.1
$GPGGA,015029.00,3857.3152,N,09441.0625,W,2,10,0.9,283.2,M,-28.8,M,,*5B -62.6
$GPGGA,015031.00,3857.3152,N,09441.0566,W,2,10,0.9,283.1,M,-28.8,M,,*55 -62.2
$GPGGA,015032.00,3857.3149,N,09441.0537,W,2,10,0.9,283.0,M,-28.8,M,,*59 -63.6
$GPGGA,015033.00,3857.3145,N,09441.0508,W,2,10,0.9,283.0,M,-28.8,M,,*58 -60.7
$GPGGA,015034.00,3857.3135,N,09441.0479,W,2,10,0.9,283.1,M,-28.8,M,,*5E -63.0
$GPGGA,015036.00,3857.3120,N,09441.0410,W,2,10,0.9,282.8,M,-28.8,M,,*5F -60.9
$GPGGA,015037.00,3857.3115,N,09441.0371,W,2,10,1.0,282.8,M,-28.8,M,,*50 -66.5
$GPGGA,015038.00,3857.3110,N,09441.0332,W,2,10,0.9,282.6,M,-28.8,M,,*5B -67.2
$GPGGA,015039.00,3857.3110,N,09441.0293,W,2,10,1.0,282.5,M,-28.8,M,,*5B -65.7
$GPGGA,015041.00,3857.3108,N,09441.0205,W,2,10,0.9,282.5,M,-28.8,M,,*5A -64.1
$GPGGA,015042.00,3857.3110,N,09441.0156,W,2,10,0.9,282.3,M,-28.8,M,,*53 -61.5
$GPGGA,015043.00,3857.3110,N,09441.0117,W,2,10,0.9,282.5,M,-28.8,M,,*51 -63.1
$GPGGA,015044.00,3857.3110,N,09441.0068,W,2,10,0.9,282.4,M,-28.8,M,,*5E -66.0
$GPGGA,015046.00,3857.3113,N,09440.9971,W,2,10,0.9,282.5,M,-28.8,M,,*57 -62.4
$GPGGA,015047.00,3857.3113,N,09440.9932,W,2,10,0.9,282.4,M,-28.8,M,,*50 -62.6
$GPGGA,015048.00,3857.3115,N,09440.9893,W,2,10,1.0,282.4,M,-28.8,M,,*5B -64.2
$GPGGA,015049.00,3857.3115,N,09440.9854,W,2,10,0.9,282.3,M,-28.8,M,,*5E -62.1
$GPGGA,015051.00,3857.3120,N,09440.9785,W,2,10,0.9,281.9,M,-28.8,M,,*5B -59.9
$GPGGA,015052.00,3857.3123,N,09440.9756,W,2,10,0.9,281.7,M,-28.8,M,,*5B -61.6
$GPGGA,015053.00,3857.3123,N,09440.9736,W,2,10,0.9,281.6,M,-28.8,M,,*5D -60.9
$GPGGA,015054.00,3857.3125,N,09440.9717,W,2,10,0.9,281.5,M,-28.8,M,,*5C -59.6
$GPGGA,015056.00,3857.3135,N,09440.9678,W,2,10,0.9,281.4,M,-28.8,M,,*56 -58.1
$GPGGA,015057.00,3857.3147,N,09440.9658,W,2,10,0.9,281.5,M,-28.8,M,,*51 -56.9
$GPGGA,015058.00,3857.3169,N,09440.9639,W,2,10,0.9,281.7,M,-28.8,M,,*57 -61.1
$GPGGA,015059.00,3857.3196,N,09440.9629,W,2,10,0.9,281.7,M,-28.8,M,,*57 -63.3
$GPGGA,015101.00,3857.3269,N,09440.9629,W,2,10,0.9,281.7,M,-28.8,M,,*58 -64.7
$GPGGA,015102.00,3857.3313,N,09440.9629,W,2,10,0.9,281.8,M,-28.8,M,,*58 -66.1
$GPGGA,015103.00,3857.3359,N,09440.9629,W,2,10,0.9,281.8,M,-28.8,M,,*57 -69.2
$GPGGA,015104.00,3857.3408,N,09440.9639,W,2,10,0.9,281.9,M,-28.8,M,,*53 -67.9
$GPGGA,015106.00,3857.3513,N,09440.9639,W,2,10,0.9,282.2,M,-28.8,M,,*52 -67.5
$GPGGA,015107.00,3857.3567,N,09440.9639,W,2,10,0.9,282.5,M,-28.8,M,,*57 -61.5
$GPGGA,015108.00,3857.3621,N,09440.9639,W,2,10,0.9,282.8,M,-28.8,M,,*54 -59.7
$GPGGA,015109.00,3857.3672,N,09440.9629,W,2,09,1.4,283.1,M,-28.8,M,,*5E -59.9
$GPGGA,015111.00,3857.3770,N,09440.9629,W,2,10,0.9,283.9,M,-28.8,M,,*58 -59.7
$GPGGA,015112.00,3857.3813,N,09440.9629,W,2,10,1.0,284.2,M,-28.8,M,,*55 -62.0
$GPGGA,015113.00,3857.3850,N,09440.9629,W,2,10,0.9,284.3,M,-28.8,M,,*5A -61.6
$GPGGA,015114.00,3857.3882,N,09440.9629,W,2,10,1.0,284.6,M,-28.8,M,,*5F -60.0
$GPGGA,015116.00,3857.3923,N,09440.9629,W,2,10,0.9,284.8,M,-28.8,M,,*51 -58.7
$GPGGA,015117.00,3857.3933,N,09440.9619,W,2,10,0.9,285.0,M,-28.8,M,,*5B -59.9
$GPGGA,015118.00,3857.3945,N,09440.9619,W,2,10,0.9,285.2,M,-28.8,M,,*57 -61.9
$GPGGA,015119.00,3857.3960,N,09440.9600,W,2,10,0.9,285.3,M,-28.8,M,,*58 -63.4
$GPGGA,015121.00,3857.3972,N,09440.9531,W,2,10,0.9,285.5,M,-28.8,M,,*57 -59.7
$GPGGA,015122.00,3857.3972,N,09440.9482,W,2,10,0.9,285.5,M,-28.8,M,,*5D -59.7
$GPGGA,015123.00,3857.3972,N,09440.9434,W,2,10,0.9,285.5,M,-28.8,M,,*51 -62.0
$GPGGA,015124.00,3857.3972,N,09440.9365,W,2,10,0.9,285.5,M,-28.8,M,,*55 -61.9
$GPGGA,015126.00,3857.3972,N,09440.9229,W,2,10,0.9,285.4,M,-28.8,M,,*5F -60.0
$GPGGA,015127.00,3857.3972,N,09440.9150,W,2,10,0.9,285.3,M,-28.8,M,,*54 -60.8
$GPGGA,015128.00,3857.3972,N,09440.9072,W,2,10,0.9,285.3,M,-28.8,M,,*5A -61.1
$GPGGA,015129.00,3857.3972,N,09440.8994,W,2,10,1.0,285.2,M,-28.8,M,,*52 -60.2
$GPGGA,015131.00,3857.3972,N,09440.8828,W,2,10,1.0,285.3,M,-28.8,M,,*5C -62.6
$GPGGA,015132.00,3857.3972,N,09440.8750,W,2,10,1.0,285.3,M,-28.8,M,,*5F -60.0
$GPGGA,015133.00,3857.3972,N,09440.8662,W,2,10,1.0,285.5,M,-28.8,M,,*58 -60.0
$GPGGA,015134.00,3857.3975,N,09440.8584,W,2,10,0.9,285.6,M,-28.8,M,,*58 -61.8
$GPGGA,015136.00,3857.3975,N,09440.8408,W,2,10,0.9,286.0,M,-28.8,M,,*5A -59.7
$GPGGA,015137.00,3857.3975,N,09440.8320,W,2,10,0.9,286.3,M,-28.8,M,,*55 -58.4
$GPGGA,015138.00,3857.3975,N,09440.8232,W,2,10,0.9,286.5,M,-28.8,M,,*5E -58.6
$GPGGA,015139.00,3857.3975,N,09440.8145,W,2,10,0.9,286.9,M,-28.8,M,,*50 -59.4
$GPGGA,015141.00,3857.3975,N,09440.7979,W,2,10,1.0,287.6,M,-28.8,M,,*51 -63.1
$GPGGA,015142.00,3857.3975,N,09440.7891,W,2,10,0.9,288.0,M,-28.8,M,,*54 -59.6
$GPGGA,015143.00,3857.3977,N,09440.7803,W,2,10,0.9,288.1,M,-28.8,M,,*5D -60.2
$GPGGA,015144.00,3857.3977,N,09440.7725,W,2,10,0.9,288.0,M,-28.8,M,,*50 -60.1
$GPGGA,015146.00,3857.3977,N,09440.7549,W,2,10,1.0,286.9,M,-28.8,M,,*55 -60.9
$GPGGA,015147.00,3857.3977,N,09440.7461,W,2,10,0.9,286.1,M,-28.8,M,,*5F -60.7
$GPGGA,015148.00,3857.3977,N,09440.7373,W,2,10,0.9,285.3,M,-28.8,M,,*55 -58.8
$GPGGA,015149.00,3857.3977,N,09440.7275,W,2,10,0.9,284.5,M,-28.8,M,,*54 -59.5
$GPGGA,015151.00,3857.3975,N,09440.7090,W,2,10,1.0,283.4,M,-28.8,M,,*58 -61.3
$GPGGA,015152.00,3857.3975,N,09440.6992,W,2,10,0.9,282.5,M,-28.8,M,,*59 -61.0
$GPGGA,015153.00,3857.3975,N,09440.6895,W,2,10,0.9,282.2,M,-28.8,M,,*59 -58.7
$GPGGA,015154.00,3857.3977,N,09440.6797,W,2,10,1.0,282.1,M,-28.8,M,,*5A -61.3
$GPGGA,015156.00,3857.3977,N,09440.6602,W,2,10,0.9,281.7,M,-28.8,M,,*58 -57.7
$GPGGA,015157.00,3857.3977,N,09440.6504,W,2,10,0.9,281.5,M,-28.8,M,,*5E -60.9
$GPGGA,015158.00,3857.3977,N,09440.6406,W,2,10,0.9,281.3,M,-28.8,M,,*54 -60.9
$GPGGA,015159.00,3857.3977,N,09440.6318,W,2,10,0.9,281.2,M,-28.8,M,,*5C -57.8
$GPGGA,015201.00,3857.3977,N,09440.6123,W,2,10,0.9,281.2,M,-28.8,M,,*58 -58.4
$GPGGA,015202.00,3857.3979,N,09440.6025,W,2,10,0.9,281.0,M,-28.8,M,,*50 -59.5
$GPGGA,015203.00,3857.3979,N,09440.5928,W,2,10,0.9,281.0,M,-28.8,M,,*56 -61.4
$GPGGA,015204.00,3857.3979,N,09440.5830,W,2,10,0.9,281.1,M,-28.8,M,,*58 -64.7
$GPGGA,015206.00,3857.3979,N,09440.5625,W,2,10,0.9,281.3,M,-28.8,M,,*52 -65.8
$GPGGA,015207.00,3857.3979,N,09440.5527,W,2,10,0.9,281.0,M,-28.8,M,,*51 -62.6
$GPGGA,015208.00,3857.3979,N,09440.5420,W,2,10,0.9,281.0,M,-28.8,M,,*58 -59.0
$GPGGA,015209.00,3857.3979,N,09440.5322,W,2,10,0.9,280.9,M,-28.8,M,,*54 -58.0
$GPGGA,015211.00,3857.3982,N,09440.5127,W,2,10,0.9,281.1,M,-28.8,M,,*57 -60.4
$GPGGA,015212.00,3857.3982,N,09440.5020,W,2,10,0.9,281.3,M,-28.8,M,,*50 -62.0
$GPGGA,015213.00,3857.3979,N,09440.4922,W,2,10,0.9,281.3,M,-28.8,M,,*5F -64.6
$GPGGA,015214.00,3857.3982,N,09440.4834,W,2,10,0.9,281.6,M,-28.8,M,,*5F -63.8
$GPGGA,015216.00,3857.3982,N,09440.4639,W,2,10,0.9,281.9,M,-28.8,M,,*51 -64.0
$GPGGA,015217.00,3857.3982,N,09440.4551,W,2,10,1.0,281.9,M,-28.8,M,,*55 -62.7
$GPGGA,015218.00,3857.3982,N,09440.4463,W,2,10,0.9,281.9,M,-28.8,M,,*52 -64.1
$GPGGA,015219.00,3857.3982,N,09440.4365,W,2,10,0.9,281.9,M,-28.8,M,,*52 -60.9
$GPGGA,015221.00,3857.3982,N,09440.4189,W,2,10,0.9,281.6,M,-28.8,M,,*56 -57.9
$GPGGA,015222.00,3857.3984,N,09440.4092,W,2,10,0.9,281.5,M,-28.8,M,,*5B -58.3
$GPGGA,015223.00,3857.3984,N,09440.4004,W,2,10,0.9,281.3,M,-28.8,M,,*53 -59.6
$GPGGA,015224.00,3857.3984,N,09440.3906,W,2,10,0.9,281.0,M,-28.8,M,,*5B -60.1
$GPGGA,015226.00,3857.3982,N,09440.3721,W,2,10,0.9,280.6,M,-28.8,M,,*53 -60.2
$GPGGA,015227.00,3857.3982,N,09440.3633,W,2,10,0.9,280.5,M,-28.8,M,,*53 -60.1
$GPGGA,015228.00,3857.3982,N,09440.3535,W,2,10,0.9,280.2,M,-28.8,M,,*5E -59.1
$GPGGA,015229.00,3857.3982,N,09440.3438,W,2,10,0.9,280.0,M,-28.8,M,,*51 -60.3
$GPGGA,015231.00,3857.3982,N,09440.3252,W,2,10,0.9,280.1,M,-28.8,M,,*53 -58.5
$GPGGA,015232.00,3857.3982,N,09440.3154,W,2,10,0.9,280.0,M,-28.8,M,,*54 -60.4
$GPGGA,015233.00,3857.3982,N,09440.3047,W,2,10,0.9,279.9,M,-28.8,M,,*59 -59.9
$GPGGA,015234.00,3857.3982,N,09440.2949,W,2,10,0.9,279.9,M,-28.8,M,,*58 -61.7
$GPGGA,015236.00,3857.3984,N,09440.2744,W,2,10,0.9,279.9,M,-28.8,M,,*5F -60.5
$GPGGA,015237.00,3857.3984,N,09440.2646,W,2,10,1.0,280.1,M,-28.8,M,,*5B -59.3
$GPGGA,015238.00,3857.3984,N,09440.2539,W,2,10,0.9,280.2,M,-28.8,M,,*54 -60.9
$GPGGA,015239.00,3857.3984,N,09440.2441,W,2,10,0.9,280.3,M,-28.8,M,,*5A -59.8
$GPGGA,015241.00,3857.3984,N,09440.2236,W,2,10,1.0,280.4,M,-28.8,M,,*5C -60.8
$GPGGA,015242.00,3857.3984,N,09440.2139,W,2,10,1.0,280.5,M,-28.8,M,,*52 -60.7
$GPGGA,015243.00,3857.3984,N,09440.2041,W,2,10,1.0,280.6,M,-28.8,M,,*5E -61.3
$GPGGA,015244.00,3857.3984,N,09440.1943,W,2,10,0.9,280.6,M,-28.8,M,,*59 -60.2
$GPGGA,015246.00,3857.3979,N,09440.1758,W,2,10,0.9,281.0,M,-28.8,M,,*5A -59.7
$GPGGA,015247.00,3857.3975,N,09440.1660,W,2,10,0.9,281.3,M,-28.8,M,,*5E -58.6
$GPGGA,015248.00,3857.3972,N,09440.1572,W,2,10,0.9,281.6,M,-28.8,M,,*53 -61.1
$GPGGA,015249.00,3857.3967,N,09440.1484,W,2,10,0.9,282.0,M,-28.8,M,,*5B -60.4
$GPGGA,015251.00,3857.3962,N,09440.1309,W,2,10,1.0,282.9,M,-28.8,M,,*54 -61.0
$GPGGA,015252.00,3857.3962,N,09440.1230,W,2,10,1.0,283.4,M,-28.8,M,,*50 -63.4
$GPGGA,015253.00,3857.3962,N,09440.1152,W,2,10,1.0,284.0,M,-28.8,M,,*55 -59.8
$GPGGA,015254.00,3857.3960,N,09440.1084,W,2,10,0.9,284.5,M,-28.8,M,,*57 -62.8
$GPGGA,015256.00,3857.3960,N,09440.0957,W,2,10,0.9,285.4,M,-28.8,M,,*53 -63.6
$GPGGA,015257.00,3857.3960,N,09440.0898,W,2,10,1.0,285.8,M,-28.8,M,,*54 -65.3
$GPGGA,015258.00,3857.3960,N,09440.0850,W,2,10,1.0,286.2,M,-28.8,M,,*56 -61.4
$GPGGA,015259.00,3857.3958,N,09440.0811,W,2,10,0.9,286.5,M,-28.8,M,,*56 -60.6
$GPGGA,015301.00,3857.3948,N,09440.0752,W,2,10,1.0,287.0,M,-28.8,M,,*5F -60.6
$GPGGA,015302.00,3857.3936,N,09440.0732,W,2,10,0.9,287.1,M,-28.8,M,,*5A -60.4
$GPGGA,015303.00,3857.3914,N,09440.0703,W,2,10,0.9,287.1,M,-28.8,M,,*59 -62.8
$GPGGA,015304.00,3857.3884,N,09440.0684,W,2,10,1.0,287.1,M,-28.8,M,,*50 -60.3
$GPGGA,015306.00,3857.3796,N,09440.0664,W,2,10,0.9,286.6,M,-28.8,M,,*5E -60.1
$GPGGA,015307.00,3857.3743,N,09440.0664,W,2,10,0.9,286.4,M,-28.8,M,,*55 -59.0
$GPGGA,015308.00,3857.3682,N,09440.0664,W,2,10,0.9,286.2,M,-28.8,M,,*50 -60.9
$GPGGA,015309.00,3857.3618,N,09440.0664,W,2,10,0.9,286.1,M,-28.8,M,,*51 -61.0
$GPGGA,015311.00,3857.3477,N,09440.0664,W,2,10,0.9,285.7,M,-28.8,M,,*56 -60.9
$GPGGA,015312.00,3857.3401,N,09440.0664,W,2,10,0.9,285.5,M,-28.8,M,,*56 -61.6
$GPGGA,015313.00,3857.3323,N,09440.0664,W,2,10,0.9,285.2,M,-28.8,M,,*57 -61.1
$GPGGA,015314.00,3857.3245,N,09440.0664,W,2,10,0.9,284.8,M,-28.8,M,,*5A -62.5
$GPGGA,015316.00,3857.3081,N,09440.0664,W,2,10,0.9,284.0,M,-28.8,M,,*5A -61.7
$GPGGA,015317.00,3857.2998,N,09440.0664,W,2,10,0.9,283.6,M,-28.8,M,,*5A -62.5
$GPGGA,015318.00,3857.2915,N,09440.0664,W,2,10,0.9,283.3,M,-28.8,M,,*55 -61.6
$GPGGA,015319.00,3857.2830,N,09440.0664,W,2,10,0.9,283.0,M,-28.8,M,,*51 -62.5
$GPGGA,015321.00,3857.2664,N,09440.0654,W,2,10,0.9,282.4,M,-28.8,M,,*53 -60.1
$GPGGA,015322.00,3857.2583,N,09440.0654,W,2,10,0.9,282.0,M,-28.8,M,,*5E -60.9
$GPGGA,015323.00,3857.2500,N,09440.0645,W,2,10,0.9,281.6,M,-28.8,M,,*51 -61.4
$GPGGA,015324.00,3857.2419,N,09440.0645,W,2,10,0.9,281.3,M,-28.8,M,,*5A -61.5
$GPGGA,015326.00,3857.2275,N,09440.0635,W,2,10,0.9,280.6,M,-28.8,M,,*57 -61.2
$GPGGA,015327.00,3857.2209,N,09440.0635,W,2,10,0.9,280.3,M,-28.8,M,,*58 -60.8
$GPGGA,015328.00,3857.2151,N,09440.0635,W,2,10,0.9,280.1,M,-28.8,M,,*5B -61.8
$GPGGA,015329.00,3857.2100,N,09440.0635,W,2,10,0.9,279.9,M,-28.8,M,,*50 -61.9
$GPGGA,015331.00,3857.2019,N,09440.0635,W,2,09,1.0,279.6,M,-28.8,M,,*5F -60.5
$GPGGA,015332.00,3857.1992,N,09440.0635,W,2,09,1.0,279.5,M,-28.8,M,,*56 -58.9
$GPGGA,015333.00,3857.1970,N,09440.0635,W,2,09,1.0,279.4,M,-28.8,M,,*5A -60.0
$GPGGA,015334.00,3857.1958,N,09440.0635,W,2,09,1.0,279.4,M,-28.8,M,,*57 -61.2
$GPGGA,015336.00,3857.1941,N,09440.0635,W,2,09,1.0,279.3,M,-28.8,M,,*5A -62.0
$GPGGA,015337.00,3857.1936,N,09440.0635,W,2,09,1.0,279.3,M,-28.8,M,,*5B -62.5
$GPGGA,015338.00,3857.1934,N,09440.0635,W,2,09,1.0,279.2,M,-28.8,M,,*57 -62.7
$GPGGA,015339.00,3857.1934,N,09440.0635,W,2,09,1.0,279.2,M,-28.8,M,,*56 -62.6
$GPGGA,015341.00,3857.1931,N,09440.0635,W,2,09,1.0,279.0,M,-28.8,M,,*5E -61.3
$GPGGA,015342.00,3857.1919,N,09440.0635,W,2,09,1.0,279.0,M,-28.8,M,,*57 -66.0
$GPGGA,015343.00,3857.1895,N,09440.0635,W,2,09,1.0,278.9,M,-28.8,M,,*5B -68.2
$GPGGA,015344.00,3857.1860,N,09440.0625,W,2,09,1.0,278.7,M,-28.8,M,,*59 -65.7
$GPGGA,015346.00,3857.1768,N,09440.0625,W,2,09,1.0,278.3,M,-28.8,M,,*58 -62.4
$GPGGA,015347.00,3857.1711,N,09440.0625,W,2,09,1.0,278.2,M,-28.8,M,,*56 -63.0
$GPGGA,015348.00,3857.1650,N,09440.0625,W,2,09,1.0,277.9,M,-28.8,M,,*59 -63.0
$GPGGA,015349.00,3857.1584,N,09440.0625,W,2,09,1.0,277.7,M,-28.8,M,,*5C -60.3
$GPGGA,015351.00,3857.1438,N,09440.0625,W,2,09,1.0,277.2,M,-28.8,M,,*56 -61.4
$GPGGA,015352.00,3857.1360,N,09440.0625,W,2,09,1.0,276.9,M,-28.8,M,,*55 -67.3
$GPGGA,015353.00,3857.1279,N,09440.0625,W,2,09,1.0,276.7,M,-28.8,M,,*53 -62.3
$GPGGA,015354.00,3857.1194,N,09440.0625,W,2,09,1.0,276.3,M,-28.8,M,,*50 -63.1
$GPGGA,015356.00,3857.1021,N,09440.0625,W,2,09,1.0,275.8,M,-28.8,M,,*55 -60.3
$GPGGA,015357.00,3857.0935,N,09440.0625,W,2,09,1.0,275.6,M,-28.8,M,,*57 -57.8
$GPGGA,015358.00,3857.0847,N,09440.0625,W,2,09,1.0,275.3,M,-28.8,M,,*59 -61.5
$GPGGA,015359.00,3857.0759,N,09440.0625,W,2,09,1.0,275.1,M,-28.8,M,,*5A -63.5
$GPGGA,015401.00,3857.0583,N,09440.0625,W,2,09,1.0,274.5,M,-28.8,M,,*50 -61.4
$GPGGA,015402.00,3857.0498,N,09440.0625,W,2,09,1.0,274.2,M,-28.8,M,,*5F -61.3
$GPGGA,015403.00,3857.0415,N,09440.0625,W,2,09,1.0,273.9,M,-28.8,M,,*57 -62.6
$GPGGA,015404.00,3857.0332,N,09440.0615,W,2,09,1.1,273.7,M,-28.8,M,,*5E -60.0
$GPGGA,015406.00,3857.0171,N,09440.0615,W,2,09,1.0,273.1,M,-28.8,M,,*5E -61.1
$GPGGA,015407.00,3857.0098,N,09440.0605,W,2,09,1.0,272.8,M,-28.8,M,,*50 -59.6
$GPGGA,015408.00,3857.0027,N,09440.0605,W,2,09,1.0,272.6,M,-28.8,M,,*55 -61.9
$GPGGA,015409.00,3856.9966,N,09440.0596,W,2,09,1.0,272.5,M,-28.8,M,,*5A -59.5
$GPGGA,015411.00,3856.9868,N,09440.0596,W,2,09,1.0,272.2,M,-28.8,M,,*5B -65.0
$GPGGA,015412.00,3856.9832,N,09440.0596,W,2,09,1.0,272.1,M,-28.8,M,,*54 -66.3
$GPGGA,015413.00,3856.9802,N,09440.0596,W,2,09,1.0,272.0,M,-28.8,M,,*57 -63.1
$GPGGA,015414.00,3856.9780,N,09440.0596,W,2,09,1.0,272.0,M,-28.8,M,,*55 -61.1
$GPGGA,015416.00,3856.9756,N,09440.0586,W,2,09,1.0,271.9,M,-28.8,M,,*57 -58.0
$GPGGA,015417.00,3856.9749,N,09440.0586,W,2,09,1.0,271.8,M,-28.8,M,,*59 -58.2
$GPGGA,015418.00,3856.9746,N,09440.0586,W,2,09,1.0,271.7,M,-28.8,M,,*56 -58.9
$GPGGA,015419.00,3856.9744,N,09440.0586,W,2,09,1.0,271.9,M,-28.8,M,,*5B -59.0
$GPGGA,015421.00,3856.9744,N,09440.0586,W,2,09,1.0,272.1,M,-28.8,M,,*5B -59.0
$GPGGA,015422.00,3856.9744,N,09440.0596,W,2,09,1.0,272.2,M,-28.8,M,,*5A -58.9
$GPGGA,015423.00,3856.9744,N,09440.0596,W,2,09,1.0,272.3,M,-28.8,M,,*5A -59.0
$GPGGA,015424.00,3856.9744,N,09440.0596,W,2,09,1.0,272.3,M,-28.8,M,,*5D -58.7
$GPGGA,015426.00,3856.9744,N,09440.0596,W,2,09,1.0,272.1,M,-28.8,M,,*5D -59.1
$GPGGA,015427.00,3856.9744,N,09440.0596,W,2,09,1.0,272.1,M,-28.8,M,,*5C -59.2
$GPGGA,015428.00,3856.9744,N,09440.0596,W,2,09,1.0,272.1,M,-28.8,M,,*53 -59.1
$GPGGA,015429.00,3856.9744,N,09440.0596,W,2,09,1.0,272.0,M,-28.8,M,,*53 -59.3
$GPGGA,015431.00,3856.9744,N,09440.0596,W,2,09,1.0,272.0,M,-28.8,M,,*5A -59.3
$GPGGA,015432.00,3856.9744,N,09440.0596,W,2,09,1.0,272.0,M,-28.8,M,,*59 -59.2
$GPGGA,015433.00,3856.9744,N,09440.0596,W,2,09,1.0,272.0,M,-28.8,M,,*58 -59.2
$GPGGA,015434.00,3856.9744,N,09440.0596,W,2,09,1.0,272.0,M,-28.8,M,,*5F -59.2
$GPGGA,015436.00,3856.9744,N,09440.0596,W,2,09,1.0,271.9,M,-28.8,M,,*57 -59.3
$GPGGA,015437.00,3856.9744,N,09440.0596,W,2,09,1.0,272.0,M,-28.8,M,,*5C -59.2
$GPGGA,015438.00,3856.9744,N,09440.0596,W,2,09,1.0,272.0,M,-28.8,M,,*53 -59.4
$GPGGA,015439.00,3856.9744,N,09440.0596,W,2,09,1.0,271.9,M,-28.8,M,,*58 -59.4
$GPGGA,015441.00,3856.9744,N,09440.0596,W,2,09,1.0,271.7,M,-28.8,M,,*59 -59.2
$GPGGA,015442.00,3856.9744,N,09440.0596,W,2,09,1.0,271.6,M,-28.8,M,,*5B -59.3
$GPGGA,015443.00,3856.9744,N,09440.0596,W,2,09,1.0,271.5,M,-28.8,M,,*59 -59.0
$GPGGA,015444.00,3856.9744,N,09440.0596,W,2,09,1.0,271.5,M,-28.8,M,,*5E -59.0
$GPGGA,015446.00,3856.9741,N,09440.0596,W,2,09,1.0,271.5,M,-28.8,M,,*59 -59.1
$GPGGA,015447.00,3856.9741,N,09440.0596,W,2,09,1.0,271.5,M,-28.8,M,,*58 -59.2
$GPGGA,015448.00,3856.9741,N,09440.0596,W,2,09,1.0,271.5,M,-28.8,M,,*57 -59.0
$GPGGA,015449.00,3856.9741,N,09440.0596,W,2,09,1.0,271.4,M,-28.8,M,,*57 -59.4
$GPGGA,015451.00,3856.9741,N,09440.0596,W,2,09,1.0,271.4,M,-28.8,M,,*5E -59.2
$GPGGA,015452.00,3856.9741,N,09440.0596,W,2,09,1.0,271.3,M,-28.8,M,,*5A -59.2
$GPGGA,015453.00,3856.9741,N,09440.0596,W,2,09,1.0,271.3,M,-28.8,M,,*5B -59.1
$GPGGA,015454.00,3856.9744,N,09440.0596,W,2,09,1.0,271.2,M,-28.8,M,,*58 -59.1
$GPGGA,015456.00,3856.9741,N,09440.0596,W,2,09,1.0,271.1,M,-28.8,M,,*5C -59.1
$GPGGA,015457.00,3856.9741,N,09440.0596,W,2,09,1.0,271.0,M,-28.8,M,,*5C -59.1
$GPGGA,015458.00,3856.9741,N,09440.0596,W,2,09,1.0,271.0,M,-28.8,M,,*53 -59.1
$GPGGA,015459.00,3856.9741,N,09440.0596,W,2,09,1.0,271.0,M,-28.8,M,,*52 -59.1
$GPGGA,015501.00,3856.9741,N,09440.0596,W,2,09,1.0,271.0,M,-28.8,M,,*5E -59.0
$GPGGA,015502.00,3856.9741,N,09440.0586,W,2,09,1.0,270.9,M,-28.8,M,,*54 -59.1
$GPGGA,015503.00,3856.9741,N,09440.0586,W,2,09,1.0,270.8,M,-28.8,M,,*54 -59.1
$GPGGA,015504.00,3856.9741,N,09440.0586,W,2,09,1.0,270.8,M,-28.8,M,,*53 -59.1
$GPGGA,015506.00,3856.9741,N,09440.0586,W,2,09,1.0,270.5,M,-28.8,M,,*5C -59.2
$GPGGA,015507.00,3856.9741,N,09440.0586,W,2,09,1.0,270.4,M,-28.8,M,,*5C -59.0
$GPGGA,015508.00,3856.9741,N,09440.0586,W,2,09,1.0,270.3,M,-28.8,M,,*54 -59.1
$GPGGA,015509.00,3856.9741,N,09440.0586,W,2,09,1.0,270.2,M,-28.8,M,,*54 -59.1
$GPGGA,015511.00,3856.9741,N,09440.0586,W,2,09,1.0,270.1,M,-28.8,M,,*5E -59.2
$GPGGA,015512.00,3856.9741,N,09440.0586,W,2,09,1.0,270.1,M,-28.8,M,,*5D -59.0
$GPGGA,015513.00,3856.9741,N,09440.0586,W,2,09,1.0,270.0,M,-28.8,M,,*5D -59.1
$GPGGA,015514.00,3856.9741,N,09440.0586,W,2,09,1.0,270.0,M,-28.8,M,,*5A -59.1
$GPGGA,015516.00,3856.9744,N,09440.0586,W,2,09,1.0,270.2,M,-28.8,M,,*5F -59.0
$GPGGA,015517.00,3856.9741,N,09440.0586,W,2,09,1.0,270.4,M,-28.8,M,,*5D -58.9
$GPGGA,015518.00,3856.9741,N,09440.0586,W,2,09,1.0,270.5,M,-28.8,M,,*53 -59.2
$GPGGA,015519.00,3856.9741,N,09440.0586,W,2,09,1.0,270.5,M,-28.8,M,,*52 -59.5
$GPGGA,015521.00,3856.9741,N,09440.0586,W,2,09,1.0,270.6,M,-28.8,M,,*5A -59.5
$GPGGA,015522.00,3856.9741,N,09440.0586,W,2,10,1.0,270.7,M,-28.8,M,,*50 -60.0
$GPGGA,015523.00,3856.9741,N,09440.0586,W,2,10,1.0,270.7,M,-28.8,M,,*51 -60.0
$GPGGA,015524.00,3856.9741,N,09440.0586,W,2,10,1.0,270.8,M,-28.8,M,,*59 -60.4
$GPGGA,015526.00,3856.9741,N,09440.0586,W,2,10,1.0,270.8,M,-28.8,M,,*5B -60.6
$GPGGA,015527.00,3856.9741,N,09440.0586,W,2,10,1.0,270.7,M,-28.8,M,,*55 -60.2
$GPGGA,015528.00,3856.9741,N,09440.0586,W,2,10,1.0,270.7,M,-28.8,M,,*5A -60.2
$GPGGA,015529.00,3856.9731,N,09440.0586,W,2,10,1.1,270.8,M,-28.8,M,,*52 -63.6
$GPGGA,015531.00,3856.9688,N,09440.0576,W,2,10,1.0,271.0,M,-28.8,M,,*5F -59.1
$GPGGA,015532.00,3856.9663,N,09440.0547,W,2,10,1.0,270.9,M,-28.8,M,,*53 -65.7
$GPGGA,015533.00,3856.9641,N,09440.0508,W,2,10,1.0,270.9,M,-28.8,M,,*59 -68.9
$GPGGA,015534.00,3856.9629,N,09440.0459,W,2,10,1.0,270.8,M,-28.8,M,,*54 -65.0
$GPGGA,015536.00,3856.9617,N,09440.0342,W,2,10,1.0,271.1,M,-28.8,M,,*5E -65.7
$GPGGA,015537.00,3856.9609,N,09440.0283,W,2,10,1.0,271.5,M,-28.8,M,,*58 -62.7
$GPGGA,015538.00,3856.9602,N,09440.0225,W,2,10,1.0,272.0,M,-28.8,M,,*56 -60.2
$GPGGA,015539.00,3856.9590,N,09440.0156,W,2,11,0.9,272.6,M,-28.8,M,,*57 -60.6
$GPGGA,015541.00,3856.9563,N,09440.0029,W,2,11,0.9,273.3,M,-28.8,M,,*59 -62.5
$GPGGA,015542.00,3856.9548,N,09439.9971,W,2,11,0.9,273.5,M,-28.8,M,,*56 -62.7
$GPGGA,015543.00,3856.9536,N,09439.9912,W,2,11,0.9,273.7,M,-28.8,M,,*59 -61.6
$GPGGA,015544.00,3856.9519,N,09439.9854,W,2,10,0.9,273.8,M,-28.8,M,,*5E -62.9
$GPGGA,015546.00,3856.9482,N,09439.9727,W,2,11,0.9,273.8,M,-28.8,M,,*55 -62.6
$GPGGA,015547.00,3856.9463,N,09439.9658,W,2,11,1.0,273.9,M,-28.8,M,,*5B -61.4
$GPGGA,015548.00,3856.9448,N,09439.9580,W,2,09,1.0,274.0,M,-28.8,M,,*5C -61.5
$GPGGA,015549.00,3856.9436,N,09439.9502,W,2,10,1.0,274.7,M,-28.8,M,,*51 -62.8
$GPGGA,015551.00,3856.9424,N,09439.9346,W,2,10,0.9,275.6,M,-28.8,M,,*55 -64.2
$GPGGA,015552.00,3856.9424,N,09439.9268,W,2,10,0.9,276.0,M,-28.8,M,,*5E -61.7
$GPGGA,015553.00,3856.9426,N,09439.9189,W,2,10,1.1,276.5,M,-28.8,M,,*5D -61.2
$GPGGA,015554.00,3856.9431,N,09439.9102,W,2,11,1.0,277.1,M,-28.8,M,,*5A -62.2
$GPGGA,015556.00,3856.9453,N,09439.8945,W,2,10,0.9,277.8,M,-28.8,M,,*56 -58.3
$GPGGA,015557.00,3856.9465,N,09439.8877,W,2,10,0.9,278.0,M,-28.8,M,,*55 -58.4
$GPGGA,015558.00,3856.9478,N,09439.8799,W,2,10,0.9,278.3,M,-28.8,M,,*5A -59.8
$GPGGA,015559.00,3856.9490,N,09439.8721,W,2,10,0.9,278.4,M,-28.8,M,,*59 -62.3
$GPGGA,015601.00,3856.9514,N,09439.8574,W,2,10,0.9,278.9,M,-28.8,M,,*55 -62.5
$GPGGA,015602.00,3856.9526,N,09439.8496,W,2,10,0.9,278.8,M,-28.8,M,,*5B -62.3
$GPGGA,015603.00,3856.9539,N,09439.8418,W,2,10,1.0,278.5,M,-28.8,M,,*57 -58.7
